{"source": "OpenStreetMap (via Overpass API)", "source_url": "https://www.openstreetmap.org/", "license": "ODbL 1.0 — © OpenStreetMap contributors", "fetched_at": "2026-04-18T18:32:56Z", "category": "spanish", "count": 1526, "features": [{"name": "Escuela Oficial de Idiomas de Madrid-Valdezarza", "lat": 40.472997, "lng": -3.721896, "city": null, "address": "Calle Isla Malaita 2", "website": "http://www.educa.madrid.org/eoi.valdezarza.madrid", "phone": "+34913863098;+34913731588;+34913863091", "hours": null, "kind": null}, {"name": "Escuela Oficial de Idiomas de Madrid-Carabanchel", "lat": 40.388204, "lng": -3.725026, "city": null, "address": "Calle de Portalegre 52", "website": "http://www.educa.madrid.org/eoi.carabanchel.madrid", "phone": "+34914695812", "hours": null, "kind": null}, {"name": "Escuela Oficial de Idiomas de Collado Villalba", "lat": 40.623577, "lng": -4.005179, "city": null, "address": "Calle Ruiz de Alarcón 2", "website": "http://www.educa.madrid.org/eoi.colladovillalba.colladovillalba", "phone": "+34918513744", "hours": null, "kind": null}, {"name": "Escuela Oficial de Idiomas de San Sebastián de los Reyes", "lat": 40.548791, "lng": -3.634954, "city": null, "address": "Pasaje de la Viña 3", "website": "http://www.educa.madrid.org/eoi.sansebastian", "phone": "+34916541233;+34916239700", "hours": null, "kind": null}, {"name": "Escuela Oficial de Idiomas de Rivas-vaciamadrid", "lat": 40.37374, "lng": -3.527939, "city": null, "address": "Calle de los Picos de Urbión", "website": "http://www.educa.madrid.org/eoi.rivas", "phone": "+34914990537;+34919343511", "hours": null, "kind": null}, {"name": "Escuela Oficial de Idiomas de Boadilla del Monte", "lat": 40.40995, "lng": -3.884432, "city": null, "address": "Calle Victoria Eugenia de Battemberg 22", "website": "http://www.educa.madrid.org/eoi.boadilla.boadilla", "phone": "+34916322733", "hours": null, "kind": null}, {"name": "Escuela Oficial de Idiomas de Vallecas", "lat": 40.373363, "lng": -3.665526, "city": "Madrid", "address": "Ronda Sur 229", "website": "http://www.educa.madrid.org/eoi.extmoratalaz-ptevallecas.madrid", "phone": "+34 917863195", "hours": null, "kind": null}, {"name": "Escuela Oficial de Idiomas de Barajas", "lat": 40.460702, "lng": -3.589262, "city": null, "address": "Calle de Antonio Sancha", "website": "http://www.educa.madrid.org/eoi.extciudadlineal-barajas.madrid", "phone": "+34 917474412", "hours": null, "kind": null}, {"name": "Escuela Oficial de Idiomas de El Espinillo", "lat": 40.357281, "lng": -3.68735, "city": null, "address": "Calle de la Alianza", "website": "http://www.educa.madrid.org/eoi.extvillaverde-elespinillo.madrid", "phone": "+34 913176300", "hours": null, "kind": null}, {"name": "Number 16", "lat": 43.263698, "lng": -2.933738, "city": "Bilbao", "address": null, "website": "https://number16.com/academias-de-ingles/bilbao", "phone": null, "hours": null, "kind": null}, {"name": "One to One", "lat": 40.426902, "lng": -3.714936, "city": null, "address": null, "website": null, "phone": null, "hours": null, "kind": null}, {"name": "Robinson School of English", "lat": 42.334861, "lng": -3.697124, "city": null, "address": null, "website": "https://www.academiadeinglesrobinson.com/", "phone": "+34 947272322", "hours": null, "kind": null}, {"name": "Escuela Oficial de Idiomas", "lat": 40.948244, "lng": -5.626174, "city": "Santa Marta de Tormes", "address": "Calle del Obispo Acuña 23", "website": null, "phone": null, "hours": null, "kind": null}, {"name": "Direct language", "lat": 40.398847, "lng": -3.684417, "city": null, "address": null, "website": null, "phone": null, "hours": null, "kind": null}, {"name": "Academia de inglés", "lat": 42.354681, "lng": -3.692287, "city": null, "address": null, "website": null, "phone": null, "hours": null, "kind": null}, {"name": "Wall Street", "lat": 41.552358, "lng": -8.427307, "city": null, "address": null, "website": null, "phone": null, "hours": null, "kind": null}, {"name": "Euskaltegia", "lat": 43.304189, "lng": -3.037755, "city": "Valle de Trápaga-Trapagaran", "address": "Zuberoa kalea 8", "website": "https://www.trapagaran.net/euskaltegia", "phone": "+34 94 4923457", "hours": null, "kind": null}, {"name": "The Unique English Center", "lat": 40.447805, "lng": -3.689981, "city": null, "address": null, "website": null, "phone": null, "hours": null, "kind": null}, {"name": "Feedback Institute", "lat": 40.636669, "lng": -8.651817, "city": null, "address": null, "website": null, "phone": null, "hours": null, "kind": null}, {"name": "Kumon", "lat": 42.34462, "lng": -3.689821, "city": null, "address": null, "website": "https://www.kumon.es/", "phone": "+34670935382", "hours": null, "kind": null}, {"name": "Royal School of Languages", "lat": 40.640911, "lng": -8.65571, "city": "Aveiro", "address": "Rua do Clube dos Galitos 19", "website": null, "phone": null, "hours": null, "kind": null}, {"name": "International House", "lat": 40.641986, "lng": -8.654009, "city": null, "address": null, "website": null, "phone": null, "hours": null, "kind": null}, {"name": "WSI", "lat": 40.643508, "lng": -8.643097, "city": null, "address": null, "website": null, "phone": null, "hours": null, "kind": null}, {"name": "International House Braga", "lat": 41.553422, "lng": -8.42352, "city": null, "address": null, "website": null, "phone": null, "hours": null, "kind": null}, {"name": "Queen's Language School (Alcalá)", "lat": 40.480953, "lng": -3.367012, "city": null, "address": "Calle de los Escritorios 3", "website": "https://www.queenslanguageschool.es", "phone": "+34 918 77 37 68", "hours": "Mo-Fr 10:00-14:00,16:00-21:30; Fr 10:00-14:00,16:00-21:00", "kind": null}, {"name": "Living English", "lat": 43.379902, "lng": -2.980236, "city": null, "address": null, "website": null, "phone": null, "hours": null, "kind": null}, {"name": "Oxford English", "lat": 40.394115, "lng": -3.756667, "city": null, "address": null, "website": null, "phone": null, "hours": null, "kind": null}, {"name": "Aixkiria AEK Euskaltegia", "lat": 42.845934, "lng": -2.663526, "city": "Vitoria-Gasteiz", "address": "Jose Mardones kalea 8", "website": "https://www.aek.eus/eu/?option=com_content&view=article&id=1043%3Agasteiz", "phone": "+34 945 26 35 40", "hours": null, "kind": null}, {"name": "Santutxuko AEK Euskaltegia", "lat": 43.255669, "lng": -2.909875, "city": "Bilbo", "address": "Arbidea kalea 21", "website": "https://www.aek.eus/eu/component/content/article/91-euskara/euskaltegiak/1065-bilbo?Itemid=1405", "phone": "+34 94 411 76 56", "hours": null, "kind": null}, {"name": "centro de apoio educativo- sala de estudo ciências e letras", "lat": 40.850936, "lng": -8.391347, "city": null, "address": "Rua Vasco da Gama 81", "website": null, "phone": null, "hours": null, "kind": null}, {"name": "Instituto de Línguas", "lat": 40.852526, "lng": -8.391913, "city": null, "address": "Avenida de Santo António 218", "website": null, "phone": null, "hours": null, "kind": null}, {"name": "A Casa das Linguas", "lat": 42.887659, "lng": -8.553069, "city": "Santiago de Compostela", "address": "Rúa das Casas Novas 48", "website": null, "phone": "+34 981 575934;+34 652440618", "hours": null, "kind": null}, {"name": "Escuela de Inglés Kilkenny", "lat": 40.968556, "lng": -5.674523, "city": "Salamanca", "address": "Avenida de los Maristas 52,54", "website": "http://www.escuelakilkenny.com/", "phone": "+34 923 227 696", "hours": null, "kind": null}, {"name": "English Connection", "lat": 40.370606, "lng": -3.610492, "city": null, "address": null, "website": null, "phone": null, "hours": null, "kind": null}, {"name": "Interlanguage", "lat": 42.91185, "lng": -8.736512, "city": null, "address": null, "website": null, "phone": null, "hours": null, "kind": null}, {"name": "English Wonderland", "lat": 42.912809, "lng": -8.735092, "city": null, "address": null, "website": null, "phone": null, "hours": null, "kind": null}, {"name": "Your World", "lat": 42.912065, "lng": -8.735601, "city": null, "address": null, "website": null, "phone": null, "hours": null, "kind": null}, {"name": "Englisch Tutor", "lat": 43.250754, "lng": -2.912068, "city": null, "address": null, "website": null, "phone": "+34 656435391", "hours": null, "kind": null}, {"name": "Centro de idiomas", "lat": 43.463212, "lng": -3.806749, "city": "Santander", "address": "Calle de San José 8", "website": null, "phone": null, "hours": null, "kind": null}, {"name": "Trapagarango Solas AEK Euskaltegia", "lat": 43.302823, "lng": -3.033956, "city": "Trapagaran", "address": "San Jose kalea 13", "website": "https://www.aek.eus/eu/component/content/article/91-euskara/euskaltegiak/990-trapagaran", "phone": "+34 94 492 22 04", "hours": null, "kind": null}, {"name": "Academia de Idiomas CEAN", "lat": 40.459465, "lng": -3.446032, "city": null, "address": "Calle de Rosalía de Castro 4", "website": null, "phone": null, "hours": null, "kind": null}, {"name": "Your English corner", "lat": 41.901243, "lng": -8.873297, "city": null, "address": null, "website": null, "phone": null, "hours": "Mo-Th 12:30-13:30,15:30-18:30; Fr 15:30-18:30", "kind": null}, {"name": "Euskaltegui Municipal", "lat": 43.237801, "lng": -2.877868, "city": null, "address": null, "website": null, "phone": null, "hours": null, "kind": null}, {"name": "English Connection", "lat": 40.396349, "lng": -3.622674, "city": "Madrid", "address": "Bulevar de Indalecio Prieto 43", "website": null, "phone": null, "hours": null, "kind": null}, {"name": "Escola de Línguas Anglophil", "lat": 40.642526, "lng": -8.64791, "city": null, "address": "24", "website": null, "phone": null, "hours": null, "kind": null}, {"name": "Hamilton Idiomas", "lat": 43.381607, "lng": -2.982077, "city": null, "address": null, "website": null, "phone": null, "hours": null, "kind": null}, {"name": "Cambridge Institute", "lat": 40.422599, "lng": -3.711889, "city": null, "address": "Plaza de España 6", "website": "https://www.cambridgeinstitute.net/", "phone": null, "hours": null, "kind": null}, {"name": "Bristol School", "lat": 40.271363, "lng": -7.499496, "city": "Covilhã", "address": "Rua Centro de Artes Lote 7", "website": null, "phone": null, "hours": "Mo-Fr 09:00-12:00,15:00-20:00", "kind": null}, {"name": "Britannia House of English", "lat": 40.533605, "lng": -3.478683, "city": null, "address": null, "website": "https://www.britanniahouse.es/", "phone": "+34 918845930", "hours": null, "kind": null}, {"name": "bai&by", "lat": 43.259789, "lng": -2.934158, "city": "Bilbao", "address": "Urkixo zumarkalea 22", "website": "https://www.baiby.com/", "phone": "+34 944 70 1857", "hours": null, "kind": null}, {"name": "Talk Talk Idiomas", "lat": 40.506982, "lng": -3.694861, "city": "Madrid", "address": "Calle del Monasterio de Liébana 5", "website": null, "phone": null, "hours": null, "kind": null}, {"name": "Valley's English", "lat": 43.303676, "lng": -3.038084, "city": "Valle de Trápaga-Trapagaran", "address": "Plaza de los Derechos Humanos 2", "website": null, "phone": "+34 94 4921404", "hours": null, "kind": null}, {"name": "Royal College", "lat": 43.361218, "lng": -8.421853, "city": null, "address": null, "website": null, "phone": null, "hours": null, "kind": null}, {"name": "Escuela Municipal de Idiomas", "lat": 40.531664, "lng": -3.483052, "city": null, "address": null, "website": null, "phone": "+34 916652354", "hours": null, "kind": null}, {"name": "Teens&Us", "lat": 40.456322, "lng": -3.698324, "city": null, "address": null, "website": null, "phone": null, "hours": null, "kind": null}, {"name": "Hizkuntza Eskola Ofiziala", "lat": 43.163507, "lng": -2.629047, "city": null, "address": null, "website": null, "phone": null, "hours": null, "kind": null}, {"name": "Mugakoa Idiomas", "lat": 43.324123, "lng": -3.026076, "city": null, "address": null, "website": null, "phone": null, "hours": null, "kind": null}, {"name": "Maxus Formación", "lat": 43.293281, "lng": -2.990431, "city": null, "address": null, "website": "https://www.maxusformacion.com/", "phone": "+34 946852106", "hours": null, "kind": null}, {"name": "Lenser Centro de Idiomas", "lat": 43.265618, "lng": -2.934059, "city": null, "address": null, "website": null, "phone": null, "hours": null, "kind": null}, {"name": "Mundo idiomas", "lat": 43.302586, "lng": -2.974768, "city": null, "address": null, "website": null, "phone": null, "hours": null, "kind": null}, {"name": "Centro Alemán", "lat": 43.459173, "lng": -3.816063, "city": "Santander", "address": "Calle de Concepción Arenal 1", "website": null, "phone": "+34 942223241", "hours": null, "kind": null}, {"name": "Anglia", "lat": 42.872945, "lng": -8.551877, "city": null, "address": null, "website": null, "phone": null, "hours": "Mo-Th 10:00-13:00,17:00-21:00; Fr 10:00-13:00,17:00-20:00 \"center\" || Mo-Fr 09:00-14:00,16:00-22:00 \"lessons\"", "kind": null}, {"name": "Kids&Us", "lat": 40.506094, "lng": -3.695592, "city": null, "address": null, "website": null, "phone": null, "hours": null, "kind": null}, {"name": "Colegio Delibes", "lat": 40.970729, "lng": -5.664842, "city": null, "address": null, "website": "https://www.colegiodelibes.com/", "phone": null, "hours": null, "kind": null}, {"name": "Soto Language Academy", "lat": 40.461728, "lng": -3.441623, "city": null, "address": null, "website": "https://www.sotolanguageacademy.com/", "phone": "+34 603 746 284", "hours": null, "kind": null}, {"name": "Alianza Francesa", "lat": 42.850978, "lng": -2.682318, "city": null, "address": null, "website": null, "phone": null, "hours": null, "kind": null}, {"name": "Helen Doron's English", "lat": 42.85134, "lng": -2.682235, "city": null, "address": null, "website": null, "phone": null, "hours": null, "kind": null}, {"name": "ULIC Centre", "lat": 40.434246, "lng": -3.715461, "city": "Madrid", "address": "Calle de Gaztambide 26", "website": "https://ulic.es/", "phone": "+34 910325276", "hours": null, "kind": null}, {"name": "MasterClass", "lat": 40.421644, "lng": -3.532912, "city": null, "address": "Calle de Gabriel Celaya 3", "website": "http://www.centromasterclass.com", "phone": "+34 916747818", "hours": null, "kind": null}, {"name": "English Spoken", "lat": 40.436892, "lng": -3.651442, "city": "Madrid", "address": "Calle de la Virgen de la Monjía 2", "website": "https://english-spoken.negocio.site/", "phone": "+34 910 16 42 66", "hours": "Tu-Th 16:30-21:00; Fr 17:30-19:00", "kind": null}, {"name": "GNap Idiomas", "lat": 40.443036, "lng": -3.647876, "city": null, "address": null, "website": null, "phone": null, "hours": null, "kind": null}, {"name": "La Idiomería", "lat": 40.425958, "lng": -3.716965, "city": "Madrid", "address": "Calle de Ferraz 34", "website": "http://www.laidiomeria.com/es", "phone": "+34 910 293 635", "hours": null, "kind": null}, {"name": "Escuela Oficial de Idiomas", "lat": 43.379152, "lng": -3.217179, "city": null, "address": null, "website": null, "phone": null, "hours": null, "kind": null}, {"name": "Aprending Idiomas", "lat": 40.425984, "lng": -3.715904, "city": "Madrid", "address": "Calle de Juan Álvarez Mendizábal 38", "website": "http://www.aprendingidiomas.com/", "phone": "+34 91 143 14 77", "hours": null, "kind": null}, {"name": "NovaLinguae", "lat": 43.256806, "lng": -2.924613, "city": null, "address": null, "website": null, "phone": null, "hours": null, "kind": null}, {"name": "Kids & Us", "lat": 40.430749, "lng": -3.810794, "city": null, "address": "Avenida de Pablo VI 9", "website": null, "phone": null, "hours": null, "kind": null}, {"name": "Helen Doron Academia de Inglés", "lat": 40.433867, "lng": -3.814265, "city": null, "address": null, "website": null, "phone": null, "hours": null, "kind": null}, {"name": "International House Valladolid", "lat": 41.653192, "lng": -4.721367, "city": null, "address": "Plaza de la Universidad 7", "website": "https://www.ihvalladolid.com/", "phone": "+34 983337432", "hours": "Mo-Fr 09:30-13:30,16:00-20:00", "kind": null}, {"name": "La Escuela de Inglés", "lat": 42.226089, "lng": -8.726532, "city": "Vigo", "address": "Rúa Hispanidade 90", "website": "http://www.laescueladeingles.es/", "phone": "+34 986 44 75 49", "hours": null, "kind": null}, {"name": "Helen Doron English", "lat": 40.501975, "lng": -3.677051, "city": "Madrid", "address": "Calle Puente la Reina", "website": null, "phone": null, "hours": null, "kind": null}, {"name": "Academia Iria Flavia", "lat": 42.875453, "lng": -8.541836, "city": "Santiago de Compostela", "address": "Rúa de Pérez Costanti 18", "website": "https://ifspanish.com/", "phone": null, "hours": null, "kind": null}, {"name": "Algorithmics", "lat": 40.560654, "lng": -3.615869, "city": "San Sebastián de los Reyes", "address": "Calle Francisco Ayala 3", "website": "https://alcobendas.alg.academy/", "phone": "+34665161627", "hours": "Mo-Fr 17:00-20:00; Sa 10:00-13:00; Jul-Aug off", "kind": null}, {"name": "Oakland", "lat": 43.283931, "lng": -2.864173, "city": null, "address": null, "website": null, "phone": null, "hours": null, "kind": null}, {"name": "Second Language Acquisition", "lat": 43.283805, "lng": -2.861985, "city": null, "address": null, "website": null, "phone": null, "hours": null, "kind": null}, {"name": "A Casa das Linguas", "lat": 42.882226, "lng": -8.529039, "city": null, "address": null, "website": null, "phone": null, "hours": null, "kind": null}, {"name": "Alphabet English", "lat": 42.778208, "lng": -7.410325, "city": "Sarria", "address": "Rúa da Liberdade 126", "website": null, "phone": null, "hours": null, "kind": null}, {"name": "Academia de inglés", "lat": 43.318564, "lng": -3.019042, "city": null, "address": null, "website": null, "phone": null, "hours": null, "kind": null}, {"name": "English Academy", "lat": 40.622593, "lng": -3.906415, "city": null, "address": null, "website": null, "phone": null, "hours": null, "kind": null}, {"name": "Academia de Idiomas County", "lat": 41.652943, "lng": -4.735367, "city": null, "address": null, "website": null, "phone": null, "hours": null, "kind": null}, {"name": "English Connection", "lat": 40.309169, "lng": -3.724229, "city": "Getafe", "address": "Plaza de España 5", "website": null, "phone": null, "hours": null, "kind": null}, {"name": "Hellen Doron", "lat": 41.65257, "lng": -4.721165, "city": null, "address": null, "website": null, "phone": null, "hours": null, "kind": null}, {"name": "Academia de idiomas Babel", "lat": 42.522179, "lng": -4.737455, "city": null, "address": null, "website": null, "phone": null, "hours": null, "kind": null}, {"name": "Kids & Us", "lat": 41.651958, "lng": -4.731223, "city": null, "address": null, "website": null, "phone": null, "hours": null, "kind": null}, {"name": "Alliance Française", "lat": 42.338609, "lng": -3.695728, "city": "Burgos", "address": "Calle Burgense 20", "website": "https://afburgos.com/", "phone": "+34 947 27 47 22", "hours": null, "kind": null}, {"name": "Escuela Municipal de Idiomas", "lat": 40.576774, "lng": -3.954006, "city": null, "address": null, "website": null, "phone": "+34 91859 0168", "hours": null, "kind": null}, {"name": "Step by Step English School", "lat": 43.229683, "lng": -8.353328, "city": "Carral", "address": "Rúa do Pan", "website": null, "phone": null, "hours": null, "kind": null}, {"name": "Number 16", "lat": 40.425938, "lng": -3.697071, "city": "Madrid", "address": "Calle de Fernando VI", "website": "http://www.number16.es/", "phone": "+34 912 903 031", "hours": null, "kind": null}, {"name": "EsAsia Idiomas", "lat": 40.470391, "lng": -3.685766, "city": "Madrid", "address": "Calle de Agustín de Foxá 25", "website": "http://www.esasiaidiomas.com/", "phone": "+34910838666", "hours": "Mo-Fr 10:00-21:00; Sa 10:00-14:00", "kind": null}, {"name": "My English School", "lat": 40.438753, "lng": -3.711258, "city": null, "address": "Calle de Cea Bermúdez 33", "website": null, "phone": null, "hours": null, "kind": null}, {"name": "Bristol Lane English Centre", "lat": 41.652171, "lng": -4.72096, "city": null, "address": null, "website": null, "phone": null, "hours": null, "kind": null}, {"name": "Vector Idiomas", "lat": 43.348538, "lng": -4.05093, "city": null, "address": null, "website": null, "phone": null, "hours": null, "kind": null}, {"name": "William's School", "lat": 40.428168, "lng": -3.703536, "city": "Madrid", "address": "Calle de San Andrés 25", "website": "http://williams-school.es/", "phone": "+34 91 44 83 304", "hours": null, "kind": null}, {"name": "TO BEE Academy", "lat": 40.638902, "lng": -8.638801, "city": "Aveiro", "address": "Rua de Angola 31", "website": null, "phone": "+351 234 065 905", "hours": null, "kind": null}, {"name": "Wall Street English", "lat": 40.438742, "lng": -3.710748, "city": null, "address": "Calle de Cea Bermúdez 29", "website": null, "phone": null, "hours": null, "kind": null}, {"name": "Kids&Us", "lat": 42.843397, "lng": -2.680004, "city": null, "address": null, "website": null, "phone": null, "hours": null, "kind": null}, {"name": "Hurry English Academy", "lat": 42.846261, "lng": -2.676783, "city": null, "address": null, "website": null, "phone": null, "hours": null, "kind": null}, {"name": "Kids&Us", "lat": 40.579117, "lng": -4.004516, "city": null, "address": "Calle de Guadarrama 19", "website": "https://www.kidsandus.es/es/", "phone": "+34 676 276 288", "hours": null, "kind": null}, {"name": "Konnos", "lat": 42.847312, "lng": -2.679064, "city": null, "address": null, "website": null, "phone": null, "hours": null, "kind": null}, {"name": "Boston", "lat": 42.847137, "lng": -2.679078, "city": null, "address": null, "website": null, "phone": null, "hours": null, "kind": null}, {"name": "Top Marks School of English", "lat": 43.346447, "lng": -4.045449, "city": "Torrelavega", "address": "Calle de José María Rodríguez Cuevas 4", "website": "https://www.topmarks.es", "phone": "+34 615383366", "hours": null, "kind": null}, {"name": "EducaChild", "lat": 40.437431, "lng": -3.817984, "city": null, "address": null, "website": null, "phone": null, "hours": null, "kind": null}, {"name": "Kids&Us Santander Sardinero", "lat": 43.478244, "lng": -3.790076, "city": "Santander", "address": "Plaza de Rubén Darío", "website": "https://santander.kidsandus.es", "phone": "+34 942132413", "hours": "Mo-Fr 12:00-20:00", "kind": null}, {"name": "Learn & Enjoy", "lat": 43.304002, "lng": -3.035459, "city": "Valle de Trápaga-Trapagaran", "address": "San Jose kalea 3", "website": null, "phone": null, "hours": null, "kind": null}, {"name": "Academia de Inglés", "lat": 40.490377, "lng": -3.870202, "city": null, "address": null, "website": null, "phone": null, "hours": null, "kind": null}, {"name": "One to one", "lat": 40.427657, "lng": -3.715374, "city": null, "address": null, "website": null, "phone": null, "hours": null, "kind": null}, {"name": "St. John's - School of English", "lat": 43.489095, "lng": -8.219126, "city": "Ferrol", "address": "Praza de Ultramar 1-2", "website": "http://stjohns.es/", "phone": "+34 981 31 80 03;+34 635 12 79 75", "hours": null, "kind": null}, {"name": "Academia BOSTON", "lat": 42.847287, "lng": -2.682234, "city": "Vitoria-Gasteiz", "address": "Adriano VI.aren kalea 15", "website": "https://www.bostonacademia.com/", "phone": "+34 945 288 655", "hours": "Mo-Fr 09:00-20:30", "kind": null}, {"name": "Ika Gasteiz", "lat": 42.847353, "lng": -2.682439, "city": null, "address": null, "website": null, "phone": null, "hours": null, "kind": null}, {"name": "The Kings Corner", "lat": 43.30344, "lng": -3.036432, "city": "Valle de Trápaga-Trapagaran", "address": "Doctor Mulero kalea 4", "website": null, "phone": null, "hours": null, "kind": null}, {"name": "Portobello W11", "lat": 43.242149, "lng": -8.278063, "city": "Abegondo", "address": "A Igrexa, Mabegondo", "website": null, "phone": null, "hours": null, "kind": null}, {"name": "English For Fun", "lat": 40.422938, "lng": -3.802792, "city": null, "address": null, "website": null, "phone": null, "hours": null, "kind": null}, {"name": "Fast English - Prosperidad", "lat": 40.44546, "lng": -3.67432, "city": "Madrid", "address": "Calle de Malcampo 11", "website": "https://www.thekellymethod.com/", "phone": "+34 911874483", "hours": null, "kind": null}, {"name": "Fast English - Carabanchel", "lat": 40.384271, "lng": -3.746056, "city": "Madrid", "address": "Calle de Juanita 6", "website": "https://www.thekellymethod.com/", "phone": "+34 91 115 75 17", "hours": null, "kind": null}, {"name": "Tim's English", "lat": 42.335817, "lng": -3.697639, "city": null, "address": null, "website": null, "phone": null, "hours": null, "kind": null}, {"name": "Escuela Oficial de Idiomas", "lat": 40.031807, "lng": -6.0877, "city": null, "address": null, "website": null, "phone": null, "hours": null, "kind": null}, {"name": "Escola Oficial de Idiomas de Carballo", "lat": 43.211499, "lng": -8.69551, "city": null, "address": null, "website": null, "phone": null, "hours": null, "kind": null}, {"name": "Welcome", "lat": 43.417437, "lng": -2.726515, "city": null, "address": null, "website": null, "phone": null, "hours": null, "kind": null}, {"name": "Fun Languages", "lat": 40.65424, "lng": -7.920667, "city": null, "address": null, "website": null, "phone": null, "hours": null, "kind": null}, {"name": "Anka", "lat": 40.48343, "lng": -3.35322, "city": null, "address": "Avenida Lope de Figueroa 8", "website": "https://www.ankabritishenglish.com/", "phone": "+34 91 883 83 38", "hours": "Mo-Th 10:00-13:00,16:30-20:00", "kind": null}, {"name": "Bauer", "lat": 43.168827, "lng": -5.738782, "city": "Morea/Moreda", "address": null, "website": null, "phone": null, "hours": null, "kind": null}, {"name": "Dreaming California", "lat": 40.476574, "lng": -3.853569, "city": null, "address": null, "website": null, "phone": null, "hours": "Mo-Th 09:00-14:00,15:30-21:30; Fr 09:00-20:30; Su,PH off", "kind": null}, {"name": "Apple Tree", "lat": 40.47521, "lng": -3.859964, "city": null, "address": null, "website": null, "phone": null, "hours": null, "kind": null}, {"name": "Kids & Us", "lat": 40.405584, "lng": -3.888655, "city": null, "address": null, "website": null, "phone": null, "hours": null, "kind": null}, {"name": "Cibeles", "lat": 40.441901, "lng": -3.67026, "city": "Madrid", "address": "Calle de Alustante 4", "website": null, "phone": null, "hours": null, "kind": null}, {"name": "Escuela de Idiomas", "lat": 42.545307, "lng": -3.320201, "city": null, "address": null, "website": null, "phone": null, "hours": null, "kind": null}, {"name": "Escuela de Idiomas", "lat": 42.682267, "lng": -2.945751, "city": null, "address": null, "website": null, "phone": null, "hours": null, "kind": null}, {"name": "English Language Enterprise", "lat": 43.489367, "lng": -8.201567, "city": "Narón", "address": "Avenida de Cataluña 20", "website": "https://www.english-ele.com/", "phone": "+34 881 122447", "hours": "Mo-Fr 08:30-22:00", "kind": null}, {"name": "Kids&Us", "lat": 42.99708, "lng": -7.547325, "city": null, "address": null, "website": null, "phone": null, "hours": null, "kind": null}, {"name": "Total English School", "lat": 42.998021, "lng": -7.547558, "city": null, "address": null, "website": null, "phone": null, "hours": null, "kind": null}, {"name": "Your Language club Salamanca", "lat": 40.969787, "lng": -5.674224, "city": null, "address": null, "website": null, "phone": null, "hours": null, "kind": null}, {"name": "MoyRa", "lat": 40.344473, "lng": -3.522549, "city": "Rivas Vaciamadrid", "address": "Avenida de Pablo Iglesias 84", "website": null, "phone": null, "hours": null, "kind": null}, {"name": "The Chelsea English Centre", "lat": 40.344513, "lng": -3.522379, "city": null, "address": null, "website": null, "phone": null, "hours": null, "kind": null}, {"name": "Centro Britanico", "lat": 42.847875, "lng": -8.575386, "city": null, "address": null, "website": null, "phone": null, "hours": null, "kind": null}, {"name": "Kids & Us", "lat": 42.004052, "lng": -4.524465, "city": null, "address": null, "website": null, "phone": null, "hours": null, "kind": null}, {"name": "The English Nook Academy", "lat": 43.500401, "lng": -8.204226, "city": null, "address": "Rúa Francisco Pizarro 13-15", "website": null, "phone": "+34 610 358697", "hours": null, "kind": null}, {"name": "life2live", "lat": 40.575062, "lng": -3.947369, "city": null, "address": null, "website": null, "phone": null, "hours": null, "kind": null}, {"name": "CAA English", "lat": 41.742546, "lng": -7.474786, "city": "Chaves", "address": "Praceta do Pessegueiro Bloco 1, Loja 1-3", "website": "http://www.caaenglish.com/", "phone": "+351 276 333469", "hours": "Mo-Fr 21:00-17:00", "kind": null}, {"name": "English4U", "lat": 41.744471, "lng": -7.47856, "city": "Chaves", "address": "Urbanização Quinta do Leão Loja 4", "website": "http://www.english4u.pt/", "phone": "+351 96 8501975", "hours": null, "kind": null}, {"name": "Preparation English Academy", "lat": 40.455559, "lng": -3.695156, "city": "Madrid", "address": "Calle de Orense 49", "website": "https://preparationenglish.com/", "phone": null, "hours": null, "kind": null}, {"name": "The Chelsea English Centre", "lat": 40.344639, "lng": -3.522772, "city": null, "address": null, "website": null, "phone": null, "hours": null, "kind": null}, {"name": "Yes I Can", "lat": 40.343559, "lng": -3.525165, "city": null, "address": null, "website": null, "phone": null, "hours": null, "kind": null}, {"name": "The English Study Center", "lat": 42.646068, "lng": -8.885321, "city": null, "address": null, "website": null, "phone": null, "hours": null, "kind": null}, {"name": "Award Language School", "lat": 41.901415, "lng": -8.870707, "city": null, "address": null, "website": null, "phone": null, "hours": null, "kind": null}, {"name": "Cambridge house", "lat": 40.404503, "lng": -3.693733, "city": null, "address": null, "website": null, "phone": null, "hours": null, "kind": null}, {"name": "EnglishCentre", "lat": 41.531989, "lng": -8.778497, "city": null, "address": null, "website": null, "phone": "+351960312285", "hours": null, "kind": null}, {"name": "Inglés a la Carta", "lat": 42.363827, "lng": -3.658096, "city": null, "address": null, "website": "https://www.inglesalacartaburgos.com/", "phone": "+34 947 10 03 95", "hours": null, "kind": null}, {"name": "Southport", "lat": 43.493578, "lng": -8.202437, "city": "Narón", "address": "Rúa Vigo 6", "website": null, "phone": "+34 881 936489", "hours": null, "kind": null}, {"name": "Saint John's", "lat": 43.491808, "lng": -8.199468, "city": "Narón", "address": "Rúa Vigo 35-37", "website": "http://stjohns.es/", "phone": "+34 981 071833", "hours": null, "kind": null}, {"name": "Grupo Vaughan Santander", "lat": 43.464149, "lng": -3.800909, "city": "Santander", "address": "Calle de José Ramón López Dóriga 7", "website": "https://grupovaughan.com", "phone": "+34 942 31 49 95", "hours": null, "kind": null}, {"name": "The Green Monkey", "lat": 40.433134, "lng": -3.805628, "city": null, "address": null, "website": null, "phone": null, "hours": null, "kind": null}, {"name": "Speak Soon!", "lat": 40.4057, "lng": -3.697589, "city": null, "address": null, "website": null, "phone": null, "hours": null, "kind": null}, {"name": "Aula Japón Shizuku", "lat": 43.486498, "lng": -8.237761, "city": "Ferrol", "address": "Rúa Coruña 94", "website": null, "phone": null, "hours": null, "kind": null}, {"name": "Kids and Us", "lat": 41.646359, "lng": -4.727596, "city": "Valladolid", "address": "Calle de Colmenares", "website": null, "phone": null, "hours": null, "kind": null}, {"name": "International School of Madrid", "lat": 40.466034, "lng": -3.671556, "city": null, "address": "Cuesta del Sagrado Corazón 2A", "website": null, "phone": null, "hours": null, "kind": null}, {"name": "Cronopios Idiomas", "lat": 40.412636, "lng": -3.68922, "city": "Madrid", "address": "Calle Espalter 12", "website": "https://cronopiosidiomas.com/", "phone": "+34 915 222014", "hours": "Mo-Fr 08:30-17:30", "kind": null}, {"name": "Oxford Street", "lat": 41.636078, "lng": -4.764609, "city": null, "address": null, "website": null, "phone": null, "hours": null, "kind": null}, {"name": "The English Club", "lat": 41.636466, "lng": -4.760068, "city": null, "address": null, "website": null, "phone": null, "hours": null, "kind": null}, {"name": "Alcalingua", "lat": 40.481109, "lng": -3.366469, "city": null, "address": "Calle de los Escritorios 4", "website": null, "phone": null, "hours": "Oct-May: Mo-Fr 09:00-17:00; Jun-Sep: Mo-Fr 09:00-14:00", "kind": null}, {"name": "Global Project", "lat": 42.238548, "lng": -8.712816, "city": "Vigo", "address": "Rúa Serafín Avendaño 2", "website": "https://www.globalprojectformacion.com/", "phone": null, "hours": null, "kind": null}, {"name": "Inglés Vigo", "lat": 42.238361, "lng": -8.712624, "city": "Vigo", "address": "Rúa Serafín Avendaño 3", "website": "https://inglesvigo.com/", "phone": null, "hours": null, "kind": null}, {"name": "Kinsela", "lat": 42.866123, "lng": -2.691316, "city": null, "address": "Donostia kalea 64", "website": null, "phone": null, "hours": null, "kind": null}, {"name": "Alliance Francaise", "lat": 43.370084, "lng": -8.400069, "city": null, "address": null, "website": null, "phone": null, "hours": null, "kind": null}, {"name": "Eurolingua", "lat": 42.872673, "lng": -8.55079, "city": "Santiago de Compostela", "address": "Rúa de Santiago de Chile 13", "website": "https://www.eurolingualanguageschool.es", "phone": "+34 881 956668", "hours": null, "kind": null}, {"name": "UK Madrid", "lat": 40.460826, "lng": -3.471915, "city": null, "address": null, "website": "https://www.ukmadrid.com", "phone": "+34 912 474 037", "hours": "Mo-Fr 09:00-13:00, 17:00-20:00; Sa-Su off", "kind": null}, {"name": "Academia Inglés", "lat": 43.332874, "lng": -2.997771, "city": "Leioa - Lejona", "address": "Calle Artatza 10 trasera", "website": null, "phone": null, "hours": null, "kind": null}, {"name": "Bizkiak Academia", "lat": 43.326679, "lng": -2.98768, "city": "Leioa - Lejona", "address": "Barrio Elexalde 26", "website": null, "phone": null, "hours": null, "kind": null}, {"name": "ESID Idiomas", "lat": 40.633528, "lng": -4.006653, "city": null, "address": null, "website": null, "phone": null, "hours": null, "kind": null}, {"name": "More than words", "lat": 43.346878, "lng": -8.345003, "city": null, "address": null, "website": null, "phone": null, "hours": null, "kind": null}, {"name": "Academia de Inglés WonderEnglish", "lat": 41.618794, "lng": -4.776215, "city": null, "address": "Avenida de Colón 171", "website": null, "phone": "+34 646688141", "hours": null, "kind": null}, {"name": "Kids&Us School of English", "lat": 40.444256, "lng": -3.46147, "city": null, "address": null, "website": "https://www.kidsandus.es/es/academias-ingles/torrejon-ardoz", "phone": "+34911620290", "hours": null, "kind": null}, {"name": "Delta Language School", "lat": 43.464999, "lng": -3.806286, "city": "Santander", "address": "Calle del Obispo Puchol Montis 3", "website": "https://www.deltalang.com/", "phone": "+34 942 036 886", "hours": null, "kind": null}, {"name": "The English Express", "lat": 40.40384, "lng": -3.564418, "city": "Madrid", "address": "Calle de Francisco Grande Covián", "website": null, "phone": null, "hours": null, "kind": null}, {"name": "The red castle", "lat": 42.356953, "lng": -3.673783, "city": null, "address": null, "website": null, "phone": null, "hours": null, "kind": null}, {"name": "Stratford", "lat": 43.50063, "lng": -8.199568, "city": "Narón", "address": "Avenida de Santa Icía 65", "website": null, "phone": null, "hours": null, "kind": null}, {"name": "Let's Speak English", "lat": 43.471193, "lng": -3.79567, "city": null, "address": null, "website": "https://letsspeakenglish.es/", "phone": "+34 691 03 01 52", "hours": null, "kind": null}, {"name": "The Marlowe School", "lat": 43.367103, "lng": -5.873755, "city": null, "address": null, "website": null, "phone": null, "hours": null, "kind": null}, {"name": "escuela Idiomas Modernos", "lat": 42.931528, "lng": -3.486035, "city": null, "address": null, "website": null, "phone": null, "hours": null, "kind": null}, {"name": "Galway Meeting Point", "lat": 40.373329, "lng": -3.752476, "city": "Madrid", "address": "Calle de Joaquín Turina 12", "website": null, "phone": null, "hours": null, "kind": null}, {"name": "English Today", "lat": 43.358654, "lng": -3.009506, "city": "Getxo", "address": "Iturribide kalea 4", "website": null, "phone": "+34 94 431 91 19", "hours": null, "kind": null}, {"name": "Lingua Viva", "lat": 43.361018, "lng": -8.425203, "city": null, "address": null, "website": "https://www.linguaviva.es/", "phone": null, "hours": null, "kind": null}, {"name": "BeOxford", "lat": 41.660824, "lng": -4.719346, "city": null, "address": null, "website": null, "phone": null, "hours": null, "kind": null}, {"name": "Casa das Linguas", "lat": 43.026289, "lng": -7.570085, "city": null, "address": null, "website": "http://concellodelugo.gal/es/actuaciones/casas-das-linguas", "phone": null, "hours": null, "kind": null}, {"name": "A Casa das Linguas", "lat": 42.865063, "lng": -8.554614, "city": null, "address": null, "website": null, "phone": null, "hours": null, "kind": null}, {"name": "Klasse Deutsch", "lat": 42.870984, "lng": -8.550651, "city": null, "address": "Avenida de Romero Donallo 38", "website": "https://klasse-deutsch.com", "phone": "+34 881293395", "hours": "Mo-Th 10:00-13:00,16:00-19:00; Fr 10:00-14:00", "kind": null}, {"name": "A Casa das Linguas", "lat": 42.862508, "lng": -8.644601, "city": "Bertamiráns", "address": "Avenida da Maía 101", "website": "https://acasadaslinguas.com/centro-bertamirans/", "phone": "+34 881 01 83 18", "hours": null, "kind": null}, {"name": "Britannia English School", "lat": 43.483661, "lng": -8.227189, "city": "Ferrol", "address": "Rúa Soto 6", "website": null, "phone": null, "hours": null, "kind": null}, {"name": "Avalon School of English", "lat": 42.644648, "lng": -8.888109, "city": null, "address": null, "website": null, "phone": null, "hours": null, "kind": null}, {"name": "Sección de la Escuela Oficial de Idiomas", "lat": 41.486305, "lng": -2.530575, "city": "Almazán", "address": "Calle del Buen Maestro 2", "website": null, "phone": "+34 975 31 02 79", "hours": null, "kind": null}, {"name": "Manchester English", "lat": 43.478359, "lng": -3.794891, "city": "Santander", "address": "Avenida de Cantabria 5", "website": "https://manchesterenglish.es", "phone": "+34 942 392 578", "hours": "Mo-Th 11:00-13:30,15:30-18:30; Fr 15:30-18:30", "kind": null}, {"name": "Academia infantil de inglés \"Kids & Us\"", "lat": 40.553841, "lng": -3.66022, "city": null, "address": null, "website": null, "phone": null, "hours": null, "kind": null}, {"name": "Windsor School", "lat": 40.860711, "lng": -8.619385, "city": "Ovar", "address": "Rua Engenheiro Adelino Amaro da Costa 244", "website": null, "phone": "+351 256586744", "hours": null, "kind": null}, {"name": "Lingua Estudio", "lat": 40.447287, "lng": -3.673262, "city": null, "address": null, "website": null, "phone": null, "hours": null, "kind": null}, {"name": "Instituto Kojachi", "lat": 40.44726, "lng": -3.673255, "city": null, "address": null, "website": null, "phone": null, "hours": null, "kind": null}, {"name": "World Idiomas", "lat": 40.034543, "lng": -3.59887, "city": null, "address": null, "website": null, "phone": null, "hours": null, "kind": null}, {"name": "Everyday English Center", "lat": 40.027451, "lng": -3.60647, "city": null, "address": "Calle de la Florida 121", "website": null, "phone": null, "hours": null, "kind": null}, {"name": "United Cultures Language School", "lat": 41.656602, "lng": -4.743488, "city": "Valladolid", "address": "Calle de la Vida 10", "website": "https://www.unitedcultures.es/", "phone": "+34 983846547", "hours": null, "kind": null}, {"name": "Bubbles Language School", "lat": 40.350947, "lng": -3.521381, "city": null, "address": null, "website": "http://www.bubbles-school.com/", "phone": "+34 91 499 60 10", "hours": null, "kind": null}, {"name": "Kids&Us", "lat": 43.490226, "lng": -8.217976, "city": "Ferrol", "address": "Rúa República Arxentina 2-4", "website": "https://ferrol.kidsandus.es", "phone": "+34 981 930717", "hours": "Mo-Fr 11:30-14:00,16:00-19:45; Sa,Su,PH off", "kind": null}, {"name": "WARHOL English School", "lat": 43.478046, "lng": -3.797132, "city": "Santander", "address": "Calle de Francisco Cáceres 1", "website": "https://www.warholenglishschool.com/", "phone": "+34 942 794 483", "hours": null, "kind": null}, {"name": "Wall Street English", "lat": 41.179382, "lng": -8.689614, "city": null, "address": null, "website": null, "phone": null, "hours": null, "kind": null}, {"name": "Trinity College Burgo", "lat": 43.315203, "lng": -8.368629, "city": null, "address": null, "website": null, "phone": null, "hours": null, "kind": null}, {"name": "Yowork", "lat": 40.43377, "lng": -3.715461, "city": null, "address": null, "website": null, "phone": null, "hours": null, "kind": null}, {"name": "Speak Up - English School", "lat": 41.29597, "lng": -7.748373, "city": null, "address": null, "website": null, "phone": null, "hours": null, "kind": null}, {"name": "Centro Anglo-Americano", "lat": 41.296449, "lng": -7.748466, "city": null, "address": null, "website": null, "phone": null, "hours": null, "kind": null}, {"name": "english@work", "lat": 41.298186, "lng": -7.74825, "city": null, "address": null, "website": null, "phone": null, "hours": null, "kind": null}, {"name": "Ms & Mr Language", "lat": 40.374025, "lng": -3.750952, "city": null, "address": null, "website": null, "phone": null, "hours": null, "kind": null}, {"name": "La Petite France", "lat": 43.317843, "lng": -2.677653, "city": "Gernika-Lumo", "address": "Nere Kabia kalea 1", "website": "https://lapetitefrance.es/", "phone": "+34 633 882 194", "hours": null, "kind": null}, {"name": "Zornotzako AEK Euskaltegia", "lat": 43.221661, "lng": -2.734847, "city": "Amorebieta-Etxano", "address": "San Pedro kalea 3", "website": "https://www.aek.eus/eu/component/content/article/91-euskara/euskaltegiak/1057-durango", "phone": "+34 607 15 19 17", "hours": null, "kind": null}, {"name": "Inglés Carabanchel", "lat": 40.37798, "lng": -3.74816, "city": null, "address": null, "website": null, "phone": null, "hours": null, "kind": null}, {"name": "Bla Bla Bla", "lat": 40.592302, "lng": -4.1447, "city": null, "address": null, "website": null, "phone": null, "hours": null, "kind": null}, {"name": "Sanwei", "lat": 40.432487, "lng": -3.713033, "city": null, "address": null, "website": "https://www.sanwei.es/", "phone": "+34 91 196 17 88", "hours": null, "kind": null}, {"name": "Sanwei", "lat": 40.387242, "lng": -3.73533, "city": null, "address": null, "website": "https://www.sanwei.es/", "phone": "+34 91 831 25 14", "hours": null, "kind": null}, {"name": "Tweens&Teens Kids&Us", "lat": 42.9958, "lng": -7.549052, "city": null, "address": null, "website": null, "phone": null, "hours": null, "kind": null}, {"name": "Udal Euskaltegia", "lat": 43.305495, "lng": -2.970124, "city": null, "address": null, "website": null, "phone": null, "hours": null, "kind": null}, {"name": "Udal Euskaltegia", "lat": 43.314798, "lng": -2.980695, "city": null, "address": null, "website": null, "phone": null, "hours": null, "kind": null}, {"name": "Academia Vigara Inglés", "lat": 40.353518, "lng": -3.809888, "city": "Alcorcón", "address": "Calle Urano 8", "website": "https://academiavigara.com", "phone": "+34 616117887", "hours": "Mo-Fr 16:00-21:30", "kind": null}, {"name": "Jersey English School", "lat": 40.374995, "lng": -3.769975, "city": "Madrid", "address": "Calle de Soledad Cazorla 26", "website": "https://jerseyenglishschool.com/", "phone": null, "hours": null, "kind": null}, {"name": "English link school", "lat": 40.425488, "lng": -3.603844, "city": null, "address": null, "website": null, "phone": null, "hours": null, "kind": null}, {"name": "Oxford School", "lat": 41.659394, "lng": -4.717529, "city": "Valladolid", "address": "Calle de San Pedro 4", "website": null, "phone": "+34 983045358", "hours": null, "kind": null}, {"name": "Centro de Idiomas Kangaroo", "lat": 42.159216, "lng": -8.616659, "city": null, "address": "Enrique Peinador 5", "website": "https://www.centrokangaroo.com/", "phone": null, "hours": null, "kind": null}, {"name": "Learn the Irish Way - Céad Míle Fáilte", "lat": 40.382098, "lng": -3.743471, "city": null, "address": null, "website": null, "phone": null, "hours": null, "kind": null}, {"name": "English Connection", "lat": 40.386966, "lng": -3.734402, "city": null, "address": null, "website": null, "phone": null, "hours": null, "kind": null}, {"name": "English Connection Academia de Inglés y Robótica", "lat": 40.23556, "lng": -3.752464, "city": "Parla", "address": "Avenida de los Planetas", "website": "https://englishconnection.es", "phone": null, "hours": null, "kind": null}, {"name": "Instituto Ruso Pushkin", "lat": 40.432147, "lng": -3.710252, "city": "Madrid", "address": "Calle de Galileo 26", "website": "https://institutorusopushkin.com/", "phone": "+34914483300", "hours": null, "kind": null}, {"name": "Ail Madrid", "lat": 40.404622, "lng": -3.682226, "city": "Madrid", "address": "Avenida de la Ciudad de Barcelona 120", "website": "https://ailmadrid.com/", "phone": null, "hours": null, "kind": null}, {"name": "Cedex", "lat": 40.379938, "lng": -3.749181, "city": null, "address": null, "website": null, "phone": null, "hours": null, "kind": null}, {"name": "Helen Doron English", "lat": 40.392202, "lng": -3.760518, "city": null, "address": null, "website": null, "phone": null, "hours": null, "kind": null}, {"name": "Queen's Language School (Guadalajara)", "lat": 40.635678, "lng": -3.167328, "city": "Guadalajara", "address": "Calle de Francisco Cuesta 2", "website": "https://www.queenslanguageschool.es/", "phone": "+34 949 21 11 14", "hours": "Mo-Th 09:30-13:30,16:30-21:30; Fr 09:30-13:00,16:00-20:00", "kind": null}, {"name": "Little Star", "lat": 43.374172, "lng": -3.747713, "city": "Sobremazas", "address": "Barrio Turria", "website": null, "phone": "+34 628550507", "hours": null, "kind": null}, {"name": "AIL Madrid", "lat": 40.423233, "lng": -3.683081, "city": null, "address": "Calle de Núñez de Balboa 17", "website": "https://www.ailmadrid.com/", "phone": "+34 914 354 801", "hours": null, "kind": null}, {"name": "English Connection", "lat": 40.397253, "lng": -3.66308, "city": null, "address": null, "website": null, "phone": null, "hours": null, "kind": null}, {"name": "Ian's", "lat": 40.39385, "lng": -3.753819, "city": null, "address": null, "website": null, "phone": null, "hours": null, "kind": null}, {"name": "Escuela Oficial de Idiomas de Torrelavega", "lat": 43.35443, "lng": -4.064705, "city": "Torrelavega", "address": "Avenida de Oviedo 4", "website": "https://eoitorrelavega.es/", "phone": "+34 942 80 33 91", "hours": null, "kind": null}, {"name": "Academia Lesson", "lat": 40.626935, "lng": -4.004955, "city": null, "address": null, "website": null, "phone": null, "hours": null, "kind": null}, {"name": "The British Centre 2", "lat": 40.629241, "lng": -3.176454, "city": "Guadalajara", "address": "Calle de la Constitución 16", "website": "https://www.thebritishcentre2.es/es/", "phone": "+34 949210257", "hours": null, "kind": null}, {"name": "Larry & Andy", "lat": 40.4024, "lng": -3.561624, "city": "Madrid", "address": null, "website": "https://www.academialarryandandy.com", "phone": null, "hours": null, "kind": null}, {"name": "Academia Núñez de Arce", "lat": 41.638323, "lng": -4.725648, "city": null, "address": "Calle de Vegafría 52", "website": "https://xn--academianuezdearce-w0b.es/", "phone": "+34 983223787", "hours": null, "kind": null}, {"name": "MyLingo Hub", "lat": 40.378799, "lng": -3.781567, "city": null, "address": null, "website": "https://mylingohub.online/", "phone": null, "hours": null, "kind": null}, {"name": "Centro Alemán", "lat": 42.342751, "lng": -3.698145, "city": null, "address": "Calle San Juan 30", "website": "https://centroaleman.net/", "phone": "+34 947 20 20 48", "hours": "Jan-Jun: Mo-Fr 10:00-13:30,18:00-20:00; Sep-Dec: Mo-Fr 10:00-13:30,18:00-20:00; Jul-Aug: Mo-Fr 10:00-13:30; PH closed", "kind": null}, {"name": "Youkan Academy", "lat": 42.940044, "lng": -3.570749, "city": null, "address": "Calle San Roque 12", "website": null, "phone": null, "hours": null, "kind": null}, {"name": "Santurtziko Udal Euskaltegia", "lat": 43.327794, "lng": -3.033832, "city": "Santurtzi", "address": "Jose Migel Barandiaran kalea 12", "website": null, "phone": "+34 94 4610215", "hours": "Mo-Th 08:00-13:00, 15:00-18:00; Fr 08:00-15:00", "kind": null}, {"name": "Getxoko Lauaxeta AEK Euskaltegia", "lat": 43.350414, "lng": -3.003711, "city": "Getxo", "address": "Iparbide kalea 6", "website": "https://www.aek.eus/eu/component/content/article/91-euskara/euskaltegiak/1040-getxo", "phone": "+34 94 430 47 34", "hours": null, "kind": null}, {"name": "Arundel", "lat": 43.292843, "lng": -2.990673, "city": null, "address": null, "website": null, "phone": null, "hours": null, "kind": null}, {"name": "Kids&Us", "lat": 40.415259, "lng": -3.67311, "city": null, "address": null, "website": null, "phone": null, "hours": null, "kind": null}, {"name": "Acronyms", "lat": 40.369061, "lng": -3.755721, "city": null, "address": null, "website": null, "phone": null, "hours": null, "kind": null}, {"name": "Oxford School of English", "lat": 43.36342, "lng": -5.852646, "city": "Oviedo", "address": "Calle Marqués de Pidal 7", "website": null, "phone": null, "hours": null, "kind": null}, {"name": "Kids & Us", "lat": 40.456292, "lng": -3.698344, "city": null, "address": null, "website": null, "phone": null, "hours": null, "kind": null}, {"name": "Centro de Formación del Profesorado en Idiomas", "lat": 41.635969, "lng": -4.741506, "city": "Valladolid", "address": "Calle de Albéniz 1", "website": null, "phone": "+34 983226141", "hours": null, "kind": null}, {"name": "School of English Benavente", "lat": 42.001136, "lng": -5.678532, "city": "Benavente", "address": "Ronda de Madrid 11", "website": "https://schoolofenglishbenavente.com", "phone": "+34 980 63 47 07", "hours": null, "kind": null}, {"name": "TEC The English College", "lat": 43.530237, "lng": -5.669915, "city": null, "address": null, "website": null, "phone": null, "hours": null, "kind": null}, {"name": "Pop English", "lat": 43.552239, "lng": -5.930398, "city": null, "address": "Calle Doctor Jimenez Díaz", "website": null, "phone": null, "hours": null, "kind": null}, {"name": "London Town academia de idiomas", "lat": 43.347716, "lng": -8.25313, "city": null, "address": null, "website": null, "phone": null, "hours": null, "kind": null}, {"name": "Deutschfabrik Escuela de Alemán", "lat": 43.265641, "lng": -2.945592, "city": "Bilbao", "address": "Plaza Sagrado Corazón 4", "website": "https://www.deutschfabrik.com", "phone": "+34 944055587", "hours": "Mo-Fr 09:00-13:30,14:30-21:00; Sa 10:00-13:30; PH off", "kind": null}, {"name": "Euskaditalia", "lat": 43.259176, "lng": -2.920787, "city": "Bilbao", "address": "Grupo Santo Domingo de Guzmán 11", "website": "https://www.euskaditalia.com", "phone": "+34 685 30 66 13; +34 944 05 35 10", "hours": "Mo-Fr 10:00-13:00,16:00-19:00", "kind": null}, {"name": "Big Ben", "lat": 43.384459, "lng": -3.738969, "city": "Solares", "address": "Avenida de Santander", "website": "https://www.academiasdeidiomasbigben.com/", "phone": "+34 674459358", "hours": null, "kind": null}, {"name": "Good Morning", "lat": 43.382074, "lng": -3.740736, "city": "Solares", "address": null, "website": null, "phone": null, "hours": null, "kind": null}, {"name": "Centro Académico Chino", "lat": 43.259307, "lng": -2.932088, "city": "Bilbao", "address": "Euskalduna kalea 7", "website": "https://www.centroacademicochino.com", "phone": "+352 36 23 63 512", "hours": null, "kind": null}, {"name": "New English World", "lat": 43.461785, "lng": -3.824075, "city": "Santander", "address": "Calle de San Andrés 9", "website": null, "phone": null, "hours": null, "kind": null}, {"name": "Centre Point Coslada", "lat": 40.419302, "lng": -3.569316, "city": "Coslada", "address": "Calle Océano Atlántico 1", "website": null, "phone": "+34 625741195", "hours": null, "kind": null}, {"name": "Lancaster King's School", "lat": 40.927329, "lng": -8.547683, "city": null, "address": null, "website": "http://www.lancasterschool.pt/feira.html", "phone": null, "hours": null, "kind": null}, {"name": "Instituto Confucio de Madrid", "lat": 40.425134, "lng": -3.686087, "city": null, "address": "Calle de Goya 10", "website": null, "phone": null, "hours": null, "kind": null}, {"name": "Little Britain", "lat": 40.258922, "lng": -3.700659, "city": null, "address": null, "website": null, "phone": null, "hours": null, "kind": null}, {"name": "Easy2English", "lat": 40.293544, "lng": -3.832167, "city": "Fuenlabrada", "address": "Urbanización Nuevo Versalles 10", "website": null, "phone": null, "hours": null, "kind": null}, {"name": "Helen Doron English", "lat": 40.301658, "lng": -3.752141, "city": "Getafe", "address": "Paseo Santiago Casares Quiroga 4", "website": null, "phone": null, "hours": null, "kind": null}, {"name": "Koldo Mitxelena DBH 1-2", "lat": 42.855282, "lng": -2.669143, "city": null, "address": null, "website": null, "phone": null, "hours": null, "kind": null}, {"name": "Koldo Mitxelena DBH 3-4", "lat": 42.859034, "lng": -2.665491, "city": null, "address": null, "website": null, "phone": null, "hours": null, "kind": null}, {"name": "Odón Apraiz", "lat": 42.855416, "lng": -2.668449, "city": null, "address": null, "website": null, "phone": null, "hours": null, "kind": null}, {"name": "Koldo Mitxelena Batxillergoa", "lat": 42.859534, "lng": -2.664949, "city": null, "address": null, "website": null, "phone": null, "hours": null, "kind": null}, {"name": "Tea Time", "lat": 43.510027, "lng": -5.672321, "city": null, "address": null, "website": null, "phone": null, "hours": "Mo-Th 09:30-13:00,16:00-21:00; Fr 09:30-13:00", "kind": null}, {"name": "People", "lat": 42.857554, "lng": -2.693336, "city": null, "address": null, "website": null, "phone": null, "hours": "Sep-Jul: Mo-Th 10:30-13:00,04:30-19:30; Sep-Jul: Sa,Su off", "kind": null}, {"name": "People", "lat": 42.856732, "lng": -2.692601, "city": null, "address": null, "website": null, "phone": null, "hours": null, "kind": null}, {"name": "London School of English", "lat": 42.84099, "lng": -2.693489, "city": null, "address": null, "website": null, "phone": null, "hours": null, "kind": null}, {"name": "El centro británico", "lat": 42.872825, "lng": -8.549675, "city": "Santiago de Compostela", "address": "Rúa de Ramón Cabanillas 10", "website": null, "phone": null, "hours": null, "kind": null}, {"name": "English Connection", "lat": 40.337057, "lng": -3.831506, "city": null, "address": null, "website": null, "phone": null, "hours": null, "kind": null}, {"name": "Abbot English School", "lat": 40.337195, "lng": -3.829668, "city": null, "address": null, "website": null, "phone": null, "hours": null, "kind": null}, {"name": "Lynx Idiomas", "lat": 43.328166, "lng": -2.991267, "city": null, "address": null, "website": null, "phone": null, "hours": null, "kind": null}, {"name": "Kids & Us", "lat": 40.502989, "lng": -3.888518, "city": null, "address": "Calle de Copenhague", "website": null, "phone": null, "hours": null, "kind": null}, {"name": "Cool Communication", "lat": 40.50219, "lng": -3.88879, "city": null, "address": null, "website": null, "phone": null, "hours": null, "kind": null}, {"name": "Tree Of Languages", "lat": 43.320063, "lng": -2.988098, "city": null, "address": null, "website": null, "phone": null, "hours": null, "kind": null}, {"name": "Immersion", "lat": 43.536828, "lng": -5.665018, "city": null, "address": null, "website": null, "phone": null, "hours": null, "kind": null}, {"name": "English Connection", "lat": 40.29922, "lng": -3.752394, "city": null, "address": null, "website": null, "phone": null, "hours": null, "kind": null}, {"name": "Ampuero English Centre S.C.", "lat": 43.343861, "lng": -3.418366, "city": "Ampuero", "address": "Avenida Federico Somarriba 7", "website": null, "phone": null, "hours": null, "kind": null}, {"name": "Mondragon Lingua", "lat": 42.843301, "lng": -2.673952, "city": null, "address": null, "website": null, "phone": null, "hours": null, "kind": null}, {"name": "Speak English", "lat": 42.884141, "lng": -8.548494, "city": null, "address": null, "website": null, "phone": null, "hours": null, "kind": null}, {"name": "Leioako Lamia AEK Euskaltegia", "lat": 43.323363, "lng": -2.986884, "city": "Leioa", "address": "Luis Bilbao Libano doktorearen kalea 8", "website": "https://www.aek.eus/eu/component/content/article/91-euskara/euskaltegiak/1040-getxo", "phone": "+34 94 464 60 63", "hours": null, "kind": null}, {"name": "Academia When Wenn", "lat": 42.933114, "lng": -3.484682, "city": null, "address": null, "website": null, "phone": null, "hours": null, "kind": null}, {"name": "Lorca institute", "lat": 42.875023, "lng": -8.548814, "city": null, "address": null, "website": null, "phone": null, "hours": null, "kind": null}, {"name": "get it", "lat": 41.259904, "lng": -8.616972, "city": null, "address": "Via Engenheiro Belmiro de Azevedo 69", "website": null, "phone": null, "hours": null, "kind": null}, {"name": "Arana AEK Euskaltegia", "lat": 42.850392, "lng": -2.662692, "city": "Vitoria-Gasteiz", "address": "Arana kalea 30", "website": "https://aek.eus/?option=com_content&view=article&id=1043%3Agasteiz", "phone": "+34 945 25 24 00", "hours": null, "kind": null}, {"name": "Kids&Us", "lat": 40.660204, "lng": -3.770177, "city": null, "address": null, "website": null, "phone": null, "hours": null, "kind": null}, {"name": "Lingva Kids", "lat": 40.316749, "lng": -3.698432, "city": null, "address": null, "website": null, "phone": null, "hours": null, "kind": null}, {"name": "Kids&Us Legazpi", "lat": 40.392248, "lng": -3.689632, "city": "Madrid", "address": "Calle del Plomo 10", "website": "https://www.kidsandus.es/es/academias-ingles/arganzuela-legazpi", "phone": "+34 91 782 68 76", "hours": "Mo-Th 16:00-19:30; Fr 16:00-18:30", "kind": null}, {"name": "Instituto de Língua Inglesa", "lat": 41.124031, "lng": -8.606086, "city": "Vila Nova de Gaia", "address": "Avenida da República 1622", "website": "https://bristolschool.pt/escola/vila-nova-de-gaia", "phone": "+351 223792002", "hours": "Mo-Fr 09:00-18:00", "kind": null}, {"name": "Instituto de Línguas Helena Nicolau", "lat": 40.897617, "lng": -8.492764, "city": "São João da Madeira", "address": "Rua Durbalino Laranjeira", "website": "http://www.institutodelinguas.net/", "phone": "+351 256 833 906", "hours": "Mo-Fr 10:00-12:00,14:30-20:30; We 14:30-20:30", "kind": null}, {"name": "Trinity College London", "lat": 43.490639, "lng": -6.112429, "city": null, "address": null, "website": null, "phone": null, "hours": null, "kind": null}, {"name": "Helen Doron English", "lat": 40.97694, "lng": -5.663225, "city": null, "address": null, "website": null, "phone": null, "hours": null, "kind": null}, {"name": "Academia Paula", "lat": 43.486699, "lng": -6.112057, "city": null, "address": null, "website": null, "phone": null, "hours": null, "kind": null}, {"name": "Deutsches Zentrum", "lat": 40.43178, "lng": -3.706864, "city": "Madrid", "address": "Plaza del Conde del Valle de Suchil 20", "website": "https://www.deutscheszentrum.es/", "phone": "+34 916 22 89 94", "hours": null, "kind": null}, {"name": "Ecoidiomas", "lat": 40.432008, "lng": -3.706837, "city": "Madrid", "address": "Plaza del Conde del Valle de Suchil", "website": "https://ecoidiomas.com/", "phone": "+34 914 458 318", "hours": null, "kind": null}, {"name": "activa", "lat": 40.425948, "lng": -3.711404, "city": "Madrid", "address": "Calle del Conde Duque 6", "website": "https://activa.org/", "phone": "+34 91 401 68 89", "hours": null, "kind": null}, {"name": "American Language Academy", "lat": 40.432097, "lng": -3.707461, "city": "Madrid", "address": "Plaza del Conde del Valle de Suchil 17", "website": "https://www.americanlanguage.es/", "phone": "+34 914445511", "hours": null, "kind": null}, {"name": "Abracadabra English", "lat": 40.946748, "lng": -4.103768, "city": "Segovia", "address": "Avenida Marqués de Lozoya 9", "website": "https://www.abracadabraenglish.net/", "phone": "+34 615 28 00 16", "hours": null, "kind": null}, {"name": "ENGLISH4you", "lat": 43.325607, "lng": -8.432941, "city": null, "address": "Avenida Novo Mesoiro 7", "website": "https://english4you.es/", "phone": "+34 881926672", "hours": "Mo-Fr 09:00-21:00; Sa 09:00-14:30", "kind": null}, {"name": "Aula Británica", "lat": 40.30473, "lng": -3.731273, "city": null, "address": null, "website": null, "phone": null, "hours": null, "kind": null}, {"name": "International House", "lat": 40.201926, "lng": -8.433681, "city": "Coimbra", "address": "Rua António Augusto Gonçalves 47", "website": "https://www.ihcoimbra-osc.com/", "phone": "+351 239 440 330", "hours": "Mo-Fr 09:30-21:15; Sa 10:00-13:00", "kind": null}, {"name": "Magdalena English", "lat": 40.47355, "lng": -3.643956, "city": "Madrid", "address": "Calle del Mar Caspio 37", "website": "https://www.magdalenaenglish.com/", "phone": null, "hours": null, "kind": null}, {"name": "Britonia", "lat": 43.483956, "lng": -8.232741, "city": null, "address": null, "website": null, "phone": "+34 635 546831", "hours": null, "kind": null}, {"name": "Talking Heads Academy", "lat": 43.322302, "lng": -3.022781, "city": "Portugalete", "address": "Ortuño de Alango 6", "website": null, "phone": null, "hours": "Mo-Fr 10:00-21:00", "kind": null}, {"name": "York Idiomas", "lat": 43.370186, "lng": -5.838055, "city": null, "address": null, "website": null, "phone": null, "hours": null, "kind": null}, {"name": "British Council", "lat": 41.151041, "lng": -8.619429, "city": null, "address": null, "website": null, "phone": null, "hours": null, "kind": null}, {"name": "Centro de Inglés de Elena", "lat": 40.951062, "lng": -4.080217, "city": null, "address": null, "website": null, "phone": null, "hours": null, "kind": null}, {"name": "Wall Street English", "lat": 41.156532, "lng": -8.627944, "city": null, "address": null, "website": null, "phone": null, "hours": null, "kind": null}, {"name": "Speak up", "lat": 41.18437, "lng": -8.602498, "city": null, "address": null, "website": null, "phone": null, "hours": null, "kind": null}, {"name": "Escuela Oficial de Idiomas", "lat": 40.651005, "lng": -4.679812, "city": null, "address": null, "website": "http://eoiavila.centros.educa.jcyl.es/sitio/", "phone": null, "hours": null, "kind": null}, {"name": "Hispasi idiomas", "lat": 43.457054, "lng": -3.810973, "city": null, "address": null, "website": null, "phone": null, "hours": null, "kind": null}, {"name": "English Connection Tenería", "lat": 40.251834, "lng": -3.69917, "city": "Pinto", "address": "Calle de María Blanchard 1", "website": "https://englishconnection.es/academia-ingles/pinto-teneria", "phone": "+34 917 046 138", "hours": "Mo-Fr 10:00-14:00,16:00-21:00", "kind": null}, {"name": "Caminhos do Saber", "lat": 41.299967, "lng": -7.741187, "city": null, "address": null, "website": null, "phone": null, "hours": null, "kind": null}, {"name": "Udaberria Euskaltegia", "lat": 42.848624, "lng": -2.681186, "city": null, "address": null, "website": null, "phone": null, "hours": null, "kind": null}, {"name": "Academia de Idiomas Ávila", "lat": 40.648261, "lng": -4.679975, "city": null, "address": null, "website": null, "phone": null, "hours": null, "kind": null}, {"name": "Huntington North School", "lat": 42.996358, "lng": -7.5549, "city": "Lugo", "address": "Rúa Afonso X o Sabio 1", "website": null, "phone": "+34982809428", "hours": null, "kind": null}, {"name": "Mercedarias", "lat": 42.858349, "lng": -2.664953, "city": null, "address": null, "website": null, "phone": null, "hours": null, "kind": null}, {"name": "Ikasdemia", "lat": 42.856441, "lng": -2.668775, "city": null, "address": null, "website": null, "phone": null, "hours": null, "kind": null}, {"name": "Ceronicex Centro de Formación", "lat": 40.335423, "lng": -3.765156, "city": null, "address": null, "website": null, "phone": null, "hours": null, "kind": null}, {"name": "Matthews School of English", "lat": 43.055297, "lng": -3.001917, "city": null, "address": null, "website": null, "phone": null, "hours": null, "kind": null}, {"name": "Lancaster College", "lat": 40.926012, "lng": -8.550481, "city": null, "address": "Rua Comendador Sá Couto 85C", "website": null, "phone": null, "hours": null, "kind": null}, {"name": "Rosse Mary's English School", "lat": 43.388001, "lng": -4.399012, "city": "San Vicente de la Barquera", "address": "Calle del Almirante Bonifaz", "website": null, "phone": null, "hours": null, "kind": null}, {"name": "Educachild", "lat": 40.225607, "lng": -3.752388, "city": null, "address": "Avenida de las estrellas 49", "website": null, "phone": null, "hours": "Mo 09:00-12:00,16:00-19:00; Tu-Fr 16:00-19:30", "kind": null}, {"name": "Smart Bees, English Club", "lat": 41.613644, "lng": -4.786305, "city": null, "address": null, "website": null, "phone": null, "hours": null, "kind": null}, {"name": "Linguamania", "lat": 42.236353, "lng": -8.721309, "city": null, "address": null, "website": null, "phone": null, "hours": null, "kind": null}, {"name": "Kaizen", "lat": 40.409365, "lng": -3.710375, "city": null, "address": "Calle del Humilladero 30", "website": null, "phone": null, "hours": null, "kind": null}, {"name": "Kids&Us", "lat": 40.402114, "lng": -3.564305, "city": "Madrid", "address": "Calle de Victoria Kent", "website": "http://www.kidsandus.es", "phone": null, "hours": "Mo-Fr 12:00-14:00,16:00-20:00", "kind": null}, {"name": "Newsland Idiomas", "lat": 40.483813, "lng": -3.71136, "city": "Madrid", "address": "Avenida del Cardenal Herrera Oria 173", "website": "https://newslandidiomas.es", "phone": "+34917303252", "hours": "Mo-Tu 10:30-13:00,16:00-20:30;Fr 16:00-19:30", "kind": null}, {"name": "Instituto de Línguas de Santo Tirso", "lat": 41.341718, "lng": -8.475709, "city": "Santo Tirso", "address": "Rua José Luís de Andrade 63", "website": "http://www.institutodelinguas.pt", "phone": "+351 252 857 757;+351 938 577 571", "hours": "Mo-Fr 08:30-21:00", "kind": null}, {"name": "Inlingua - Escola de Línguas", "lat": 41.151449, "lng": -8.606627, "city": "Porto", "address": "Rua de Sá da Bandeira 605", "website": "https://www.inlinguaporto.com/", "phone": "+351 223 394 400", "hours": null, "kind": null}, {"name": "Speak UP - Language Lounge", "lat": 42.280124, "lng": -8.610979, "city": "Redondela", "address": "Rúa do Salgueiral 7", "website": null, "phone": "+34 698 15 65 11", "hours": null, "kind": null}, {"name": "Chelsea English Centre", "lat": 42.279604, "lng": -8.610814, "city": "Redondela", "address": "Rúa Pai Crespo 86", "website": "https://www.chelsearedondela.com/", "phone": "+34 986 40 44 86", "hours": "Mo-Fr 16:00-21:30", "kind": null}, {"name": "Kids&Us", "lat": 42.222022, "lng": -8.730242, "city": "Vigo", "address": "Rúa de Gerona 8", "website": null, "phone": null, "hours": null, "kind": null}, {"name": "Britania english school", "lat": 43.02253, "lng": -7.564641, "city": null, "address": null, "website": null, "phone": null, "hours": null, "kind": null}, {"name": "The Language Gym", "lat": 40.407383, "lng": -3.696299, "city": null, "address": "Calle de Argumosa 28", "website": "https://thelanguagegym.es/", "phone": "+34 641 002 275", "hours": null, "kind": null}, {"name": "Aprendiferente", "lat": 40.160164, "lng": -8.86054, "city": null, "address": "Rua Dom José I 8", "website": null, "phone": null, "hours": null, "kind": null}, {"name": "Royal School of Languages", "lat": 40.656329, "lng": -7.915975, "city": "Viseu", "address": "Rua Miguel Bombarda 64", "website": null, "phone": "+351 232410210", "hours": null, "kind": null}, {"name": "Feedback Institute", "lat": 40.632269, "lng": -8.648765, "city": "Aveiro", "address": "Rua de Castro Matoso 34", "website": null, "phone": "+351 234427333", "hours": null, "kind": null}, {"name": "Casa das Línguas da Figueira da Foz", "lat": 40.166428, "lng": -8.843837, "city": "Figueira da Foz", "address": "1ª Travessa da Rua João Gaspar de Lemos Amorim 1", "website": "https://www.casadaslinguas.pt", "phone": "+351 912 300 136", "hours": null, "kind": null}, {"name": "Anna's School of English", "lat": 42.644092, "lng": -8.882809, "city": null, "address": null, "website": null, "phone": null, "hours": null, "kind": null}, {"name": "Up School", "lat": 40.272944, "lng": -7.498352, "city": "Covilhã", "address": "Avenida da Anil 3", "website": null, "phone": "+351275334431", "hours": "Set-Jun:Mo-Fr 10:00-21:00; Sa 10:00-12:00; Jul-Aug:Mo-Fr 09:00-21:00; Sa 09:00-13:00", "kind": null}, {"name": "Wall Street English", "lat": 40.270869, "lng": -7.500947, "city": null, "address": null, "website": null, "phone": null, "hours": null, "kind": null}, {"name": "Linnet Academy", "lat": 40.657812, "lng": -3.765148, "city": null, "address": null, "website": null, "phone": null, "hours": null, "kind": null}, {"name": "Escuela Oficial de Idiomas Sección El Espinar", "lat": 40.718689, "lng": -4.246098, "city": null, "address": null, "website": null, "phone": null, "hours": null, "kind": null}, {"name": "Kids&us", "lat": 40.361178, "lng": -3.75893, "city": null, "address": null, "website": null, "phone": null, "hours": null, "kind": null}, {"name": "Kids&us", "lat": 40.361236, "lng": -3.759713, "city": null, "address": null, "website": null, "phone": null, "hours": null, "kind": null}, {"name": "Colégio de Línguas", "lat": 40.540888, "lng": -7.269759, "city": "Guarda", "address": "Avenida dos Bombeiros Voluntários Egitanienses", "website": "https://www.colegiodelinguas.pt", "phone": "+351 271224303", "hours": null, "kind": null}, {"name": "ABC Línguas - Academia de Línguas de Oliveira do Bairro", "lat": 40.513249, "lng": -8.493157, "city": "Oliveira do Bairro", "address": "Travessa Doutor Abílio Pereira Pinto 58", "website": null, "phone": "+351 234747818", "hours": null, "kind": null}, {"name": "Professional English", "lat": 43.360506, "lng": -5.851922, "city": null, "address": null, "website": null, "phone": null, "hours": null, "kind": null}, {"name": "Portobello W11 School Of English", "lat": 43.293231, "lng": -8.343683, "city": "Cambre", "address": "Estrada Cambre-Temple 16", "website": null, "phone": null, "hours": "Mo-Fr 10:00-21:00", "kind": null}, {"name": "Escuela Oficial de Idiomas de Aranda de Duero", "lat": 41.664509, "lng": -3.68903, "city": null, "address": null, "website": "http://eoiarandadeduero.centros.educa.jcyl.es/sitio/", "phone": "+34947501254", "hours": "Mo-Fr 08:00-21:00", "kind": null}, {"name": "Trocalinguas", "lat": 43.291133, "lng": -8.352141, "city": "Cambre", "address": "Rúa da Canteira 2", "website": null, "phone": "+34 639 49 41 14", "hours": null, "kind": null}, {"name": "Camson Languages", "lat": 42.435448, "lng": -8.653634, "city": null, "address": null, "website": null, "phone": null, "hours": null, "kind": null}, {"name": "Chatterbox Native Language School Getxo", "lat": 43.347525, "lng": -3.009627, "city": null, "address": null, "website": "https://www.chatterboxgetxo.com", "phone": "+34685354405", "hours": null, "kind": null}, {"name": "Real English Getxo", "lat": 43.351376, "lng": -3.011592, "city": "Getxo", "address": "Algortako Etorbidea 59", "website": null, "phone": "+34648257572", "hours": "Mo-Fr 10:00-13:00 / 16:00-19:00", "kind": null}, {"name": "Irmandiños", "lat": 42.87435, "lng": -8.551775, "city": null, "address": null, "website": null, "phone": null, "hours": null, "kind": null}, {"name": "English Connection", "lat": 40.407536, "lng": -3.554674, "city": "Madrid", "address": "Calle de la Igualdad 181", "website": "https://englishconnection.es", "phone": "+34 618 594 743", "hours": null, "kind": null}, {"name": "The English Factory", "lat": 41.508908, "lng": -5.748702, "city": "Zamora", "address": "Calle de Villalpando 11A", "website": null, "phone": "+34 629 12 09 62", "hours": null, "kind": null}, {"name": "Consorcio Centro de Idiomas de Zamora", "lat": 41.507435, "lng": -5.743687, "city": "Zamora", "address": "Calle de San Torcuato 43", "website": "https://www.ccizamora.es/", "phone": "+34 980 53 15 61", "hours": null, "kind": null}, {"name": "English First", "lat": 40.437145, "lng": -3.716415, "city": null, "address": "Calle de Hilarión Eslava 50", "website": null, "phone": null, "hours": null, "kind": null}, {"name": "Wall street english", "lat": 40.470685, "lng": -3.872853, "city": "Majadahonda", "address": "Calle de Santa Catalina 17", "website": "https://www.wallstreetenglish.es/academia-ingles/majadahonda", "phone": "+34 91 999 52 69", "hours": "Mo-Fr 10:00-21:00; Sa,Su,PH off", "kind": null}, {"name": "multidiomas", "lat": 40.444019, "lng": -3.644497, "city": null, "address": null, "website": null, "phone": null, "hours": null, "kind": null}, {"name": "Northwest English Centre", "lat": 40.473673, "lng": -3.871821, "city": "Majadahonda", "address": "Calle de Madrid 5", "website": "https://www.northwestenglish.com/", "phone": "+34 916 34 49 93", "hours": "Mo-Fr 17:30-20:30; Sa-Su off", "kind": null}, {"name": "At Home English", "lat": 40.366375, "lng": -3.537653, "city": null, "address": null, "website": "https://www.ahenglish.es/", "phone": null, "hours": null, "kind": null}, {"name": "Wake Up Academy Santa Eugenia", "lat": 40.384519, "lng": -3.611342, "city": null, "address": null, "website": null, "phone": null, "hours": null, "kind": null}, {"name": "Belgium Connection Academy", "lat": 42.935153, "lng": -3.485791, "city": null, "address": null, "website": "+346030780", "phone": null, "hours": null, "kind": null}, {"name": "Bradford School of English", "lat": 40.416331, "lng": -3.573498, "city": "Coslada", "address": "Plaza del Mar Egeo 7", "website": null, "phone": null, "hours": null, "kind": null}, {"name": "Tweens&Teens by Kids&Us Legazpi", "lat": 40.390379, "lng": -3.688796, "city": "Madrid", "address": "Calle del Cromo 19", "website": "https://www.kidsandus.es/", "phone": "+34 915278001", "hours": null, "kind": null}, {"name": "Kids&us", "lat": 40.391087, "lng": -3.650607, "city": null, "address": null, "website": null, "phone": null, "hours": null, "kind": null}, {"name": "Kids & Us", "lat": 43.256082, "lng": -2.942737, "city": null, "address": null, "website": null, "phone": null, "hours": null, "kind": null}, {"name": "Academia Titania", "lat": 40.969169, "lng": -5.664803, "city": null, "address": "Calle Condes de Crespo Rascón 57", "website": "https://academiatitania.com/", "phone": "+34625903432", "hours": "Mo-Th 10:00-13:00,17:00-19:00; Fr 10:00-13:00", "kind": null}, {"name": "Helen Doron English", "lat": 40.496748, "lng": -3.611937, "city": null, "address": null, "website": null, "phone": null, "hours": null, "kind": null}, {"name": "Academia de Idiomas M Gill", "lat": 40.443818, "lng": -3.650476, "city": "Madrid", "address": "Avenida de Badajoz 23", "website": null, "phone": null, "hours": null, "kind": null}, {"name": "Escuela Oficial de Idiomas de Mieres", "lat": 43.258125, "lng": -5.778397, "city": null, "address": null, "website": null, "phone": null, "hours": null, "kind": null}, {"name": "The English Academy", "lat": 42.779655, "lng": -7.413645, "city": null, "address": null, "website": null, "phone": null, "hours": null, "kind": null}, {"name": "Kids&Ud Villaverde", "lat": 40.35723, "lng": -3.685669, "city": null, "address": null, "website": null, "phone": null, "hours": null, "kind": null}, {"name": "English Connection", "lat": 40.356931, "lng": -3.685545, "city": null, "address": null, "website": null, "phone": null, "hours": null, "kind": null}, {"name": "EIDE", "lat": 43.307341, "lng": -3.006388, "city": null, "address": null, "website": null, "phone": null, "hours": null, "kind": null}, {"name": "Oxford", "lat": 43.309769, "lng": -3.009425, "city": null, "address": null, "website": null, "phone": null, "hours": null, "kind": null}, {"name": "FIT Spain", "lat": 42.343643, "lng": -3.694055, "city": null, "address": null, "website": null, "phone": null, "hours": null, "kind": null}, {"name": "Asia Idiomas", "lat": 40.385178, "lng": -3.708236, "city": null, "address": null, "website": null, "phone": null, "hours": null, "kind": null}, {"name": "Centro de Lengua China（Xindongfang）", "lat": 40.384444, "lng": -3.706493, "city": null, "address": null, "website": null, "phone": null, "hours": null, "kind": null}, {"name": "Alfa 10", "lat": 40.354128, "lng": -3.687838, "city": null, "address": null, "website": null, "phone": null, "hours": null, "kind": null}, {"name": "Little by Little - English School", "lat": 41.510415, "lng": -5.738253, "city": "Zamora", "address": "Avenida del Príncipe de Asturias 29", "website": null, "phone": null, "hours": "Mo-Th 16:00-22:00; Fr 16:00-19:00", "kind": null}, {"name": "Smart aula", "lat": 42.360015, "lng": -3.676859, "city": null, "address": null, "website": null, "phone": null, "hours": "Mo-Fr 16:30-20:30", "kind": null}, {"name": "Escola Inglesa", "lat": 40.884092, "lng": -8.489578, "city": "São João da Madeira", "address": "Rua de Cucujães 402", "website": "https://www.escolainglesa.com/", "phone": "+351 256 831 939", "hours": null, "kind": null}, {"name": "Liceo de Idiomas Modernos - Vista Alegre", "lat": 42.360484, "lng": -3.681988, "city": null, "address": null, "website": "https://liceodeidiomasmodernos.es/", "phone": null, "hours": null, "kind": null}, {"name": "Liceo de Idiomas Modernos - Plaza España", "lat": 42.344417, "lng": -3.697366, "city": null, "address": null, "website": "https://liceodeidiomasmodernos.es/", "phone": null, "hours": null, "kind": null}, {"name": "Liceo de Idiomas Modernos - Concepción", "lat": 42.337043, "lng": -3.703345, "city": null, "address": null, "website": "https://liceodeidiomasmodernos.es/", "phone": null, "hours": null, "kind": null}, {"name": "Haru The Cat", "lat": 42.348362, "lng": -3.699081, "city": null, "address": null, "website": null, "phone": null, "hours": null, "kind": null}, {"name": "Centro de Estudios Altamira", "lat": 40.326193, "lng": -3.766208, "city": "Leganés", "address": "Calle de Velasco 4", "website": "https://www.centrodeestudiosaltamira.com/", "phone": "+34 916 94 07 73", "hours": null, "kind": null}, {"name": "LAE Madrid", "lat": 40.430045, "lng": -3.672306, "city": null, "address": null, "website": null, "phone": null, "hours": null, "kind": null}, {"name": "Zabala Euskaltegia", "lat": 43.257168, "lng": -2.942148, "city": null, "address": null, "website": null, "phone": null, "hours": null, "kind": null}, {"name": "Wall Street English", "lat": 40.898247, "lng": -8.493727, "city": "São João da Madeira", "address": "Avenida Doutor Renato Araújo", "website": null, "phone": null, "hours": null, "kind": null}, {"name": "English Connection", "lat": 42.351014, "lng": -3.665554, "city": "Burgos", "address": "Calle Luis Alberdi 14", "website": "https://englishconnection.es/academia-ingles/burgos/", "phone": "+34 947 05 29 84", "hours": null, "kind": null}, {"name": "Kids & Us", "lat": 42.16014, "lng": -8.617684, "city": null, "address": null, "website": null, "phone": null, "hours": null, "kind": null}, {"name": "Cambridge School", "lat": 40.21004, "lng": -8.419765, "city": "Coimbra", "address": "Praça da República 15", "website": "https://www.cambridge.pt", "phone": "+351 239 834 969", "hours": null, "kind": null}, {"name": "Double u academia de inglés", "lat": 43.011052, "lng": -7.566706, "city": null, "address": null, "website": null, "phone": null, "hours": null, "kind": null}, {"name": "CHELSEA School of English", "lat": 41.619759, "lng": -4.79719, "city": "Arroyo de la Encomienda", "address": "Calle Félix de Azara 12", "website": "https://www.chelseaingles.com/", "phone": null, "hours": "Mo-Fr 16:00-21:00", "kind": null}, {"name": "Kids&Us", "lat": 43.527451, "lng": -5.642931, "city": null, "address": null, "website": null, "phone": null, "hours": null, "kind": null}, {"name": "Foruko AEK Barnetegia", "lat": 43.331934, "lng": -2.677181, "city": "Forua", "address": "Elexalde auzoa 43", "website": "https://www.aek.eus/eu/component/content/article/91-euskara/euskaltegiak/1049-forua", "phone": "+34 607 63 37 88", "hours": null, "kind": null}, {"name": "Pilar Corgos", "lat": 43.684935, "lng": -7.511636, "city": null, "address": null, "website": null, "phone": null, "hours": null, "kind": null}, {"name": "Number 16 school", "lat": 40.430324, "lng": -3.711621, "city": null, "address": null, "website": null, "phone": null, "hours": null, "kind": null}, {"name": "Lancs School", "lat": 43.251209, "lng": -5.77584, "city": "Mieres del Camín", "address": "Cai Armando Palacio Valdés 11", "website": null, "phone": null, "hours": null, "kind": null}, {"name": "Escuela Oficial de Idiomas de Luarca", "lat": 43.547042, "lng": -6.528658, "city": null, "address": null, "website": null, "phone": null, "hours": null, "kind": null}, {"name": "English School Mieres", "lat": 43.249964, "lng": -5.772298, "city": null, "address": null, "website": null, "phone": null, "hours": null, "kind": null}, {"name": "Ciling", "lat": 41.16219, "lng": -8.605144, "city": null, "address": null, "website": null, "phone": null, "hours": null, "kind": null}, {"name": "Wall street english", "lat": 41.162132, "lng": -8.605426, "city": null, "address": null, "website": null, "phone": null, "hours": null, "kind": null}, {"name": "La Casita de Inglés Sanchinarro", "lat": 40.503923, "lng": -3.652198, "city": null, "address": null, "website": null, "phone": null, "hours": null, "kind": null}, {"name": "British Council", "lat": 40.501021, "lng": -3.8859, "city": "Las Rozas de Madrid", "address": "Avenida Nuestra Señora del Retamar 8", "website": "https://www.britishcouncil.es/", "phone": "+34 911 21 80 00", "hours": "Mo-Th 13:00-20:00", "kind": null}, {"name": "Link Centro de Idiomas", "lat": 43.41734, "lng": -3.845316, "city": null, "address": null, "website": null, "phone": "+34 608 28 80 35", "hours": null, "kind": null}, {"name": "Wall Street English", "lat": 41.40855, "lng": -8.520085, "city": "Vila Nova de Famalicao", "address": "Avenida 25 de Abril 50", "website": null, "phone": null, "hours": "Mo-Fr 10:30-21:00; Sa 10:00-13:00", "kind": null}, {"name": "Academia Colón", "lat": 40.419098, "lng": -3.570302, "city": null, "address": null, "website": null, "phone": null, "hours": null, "kind": null}, {"name": "Mind the Gap English School", "lat": 43.31158, "lng": -5.690461, "city": "Langreo / Llangréu", "address": "Avenida de La Reguera 3", "website": null, "phone": null, "hours": null, "kind": null}, {"name": "Metropolitan English School", "lat": 43.419967, "lng": -3.843717, "city": null, "address": null, "website": "https://academiametropolitan.es/", "phone": "+34 662223506", "hours": "Mo,Tu,We,Th 09:30-20:00; Fr 09:30-18:30; Sa-Su off", "kind": null}, {"name": "What's up", "lat": 40.282937, "lng": -3.79999, "city": null, "address": "Plaza de la Constitución 2", "website": null, "phone": null, "hours": null, "kind": null}, {"name": "Humanitas Idiomas", "lat": 40.445147, "lng": -3.786431, "city": null, "address": "Paseo de Irlanda", "website": "https://humanit.as/", "phone": null, "hours": null, "kind": null}, {"name": "El Cuélebre", "lat": 43.043634, "lng": -6.248527, "city": null, "address": null, "website": "https://www.elcuelebre.net/", "phone": null, "hours": null, "kind": null}, {"name": "Versa Spanish Academy", "lat": 43.542309, "lng": -5.663737, "city": "Gijón/Xixón", "address": "Plazaleto Florencio Rodríguez 2", "website": null, "phone": null, "hours": null, "kind": null}, {"name": "Pinto Habla Inglés", "lat": 40.251689, "lng": -3.696349, "city": null, "address": null, "website": null, "phone": null, "hours": null, "kind": null}, {"name": "Kids&Us - Inglés para niños", "lat": 42.231932, "lng": -8.710179, "city": "Vigo", "address": "Rúa de Urzáiz 108", "website": "https://www.kidsandus.es/es/academias-ingles/vigo-independencia", "phone": null, "hours": "Mo-Th 10:00-13:00,16:00-19:30; Fr 16:00-19:00", "kind": null}, {"name": "Schoolhouse", "lat": 42.231564, "lng": -8.709539, "city": "Vigo", "address": "Rúa Pizarro 101", "website": "https://www.schoolhousevigo.com/", "phone": null, "hours": "Mo-Fr 09:30-13:00,16:00-20:00", "kind": null}, {"name": "Santurtziko AEK Euskaltegia", "lat": 43.330065, "lng": -3.037704, "city": "Santurtzi", "address": "Larrarte Anaiak kalea 18", "website": "https://aek.eus/component/content/article/91-euskara/euskaltegiak/997-santurtzi", "phone": "+34 607 515 720", "hours": null, "kind": null}, {"name": "Zadorra AEK Euskaltegia", "lat": 42.867664, "lng": -2.69099, "city": "Vitoria-Gasteiz", "address": "Bartzelona kalea 28", "website": "https://www.aek.eus/eu/?option=com_content&view=article&id=1043%3Agasteiz", "phone": "+34 945 21 75 08", "hours": null, "kind": null}, {"name": "Laudioko AEK Euskaltegia", "lat": 43.140878, "lng": -2.964348, "city": "Laudio/Llodio", "address": "Zubiaur kalea 5", "website": "https://www.aek.eus/eu/component/content/article/91-euskara/euskaltegiak/1027-laudio?Itemid=1405", "phone": "+34 663 19 41 77", "hours": null, "kind": null}, {"name": "Amurrioko AEK Euskaltegia", "lat": 43.051203, "lng": -3.004162, "city": "Amurrio", "address": "Etxegoien kalea 8", "website": "https://www.aek.eus/eu/?option=com_content&view=article&id=1085%3Aamurrio", "phone": "+34 945 89 23 34", "hours": null, "kind": null}, {"name": "Efun english center", "lat": 40.451687, "lng": -3.656634, "city": null, "address": null, "website": null, "phone": null, "hours": null, "kind": null}, {"name": "Indautxu AEK Euskaltegia", "lat": 43.262068, "lng": -2.944939, "city": "Bilbo", "address": "Urkixo zumarkalea 88", "website": "https://www.aek.eus/eu/?option=com_content&view=article&id=1065%3Abilbo", "phone": "+34 94 441 34 74", "hours": null, "kind": null}, {"name": "Matxintxu AEK Euskaltegia", "lat": 43.271954, "lng": -2.943016, "city": "Bilbo", "address": "Ramón y Cajal etorbidea 8", "website": "https://www.aek.eus/eu/?option=com_content&view=article&id=1065%3Abilbo", "phone": "+34 944 75 22 33", "hours": null, "kind": null}, {"name": "Urtats AEK Euskaltegia", "lat": 43.254251, "lng": -2.936198, "city": "Bilbo", "address": "Kirikiño etorbidea 22", "website": "https://www.aek.eus/eu/?option=com_content&view=article&id=1065%3Abilbo", "phone": "+34 944 21 13 04", "hours": null, "kind": null}, {"name": "Lizardi AEK Euskaltegia", "lat": 43.257799, "lng": -2.924984, "city": "Bilbo", "address": "Txakur kalea 1", "website": "https://www.aek.eus/eu/?option=com_content&view=article&id=1065%3Abilbo", "phone": "+34 94 416 82 00", "hours": null, "kind": null}, {"name": "Larrako AEK Euskaltegia", "lat": 43.279269, "lng": -2.96258, "city": "Bilbo", "address": "Larrakotorre kalea 24", "website": "https://www.aek.eus/eu/?option=com_content&view=article&id=1065%3Abilbo", "phone": "+34 600 58 55 22", "hours": null, "kind": null}, {"name": "Zorrotzako AEK Euskaltegia", "lat": 43.274776, "lng": -2.973962, "city": "Bilbo", "address": "Zalbidea estrata 7", "website": "https://www.aek.eus/eu/?option=com_content&view=article&id=1065%3Abilbo", "phone": "+34 94 441 49 20", "hours": null, "kind": null}, {"name": "Igorreko Kubulu AEK Euskaltegia", "lat": 43.16212, "lng": -2.781153, "city": "Igorre", "address": "Elexalde kalea 10", "website": "https://www.aek.eus/eu/component/content/article/91-euskara/euskaltegiak/1033-igorre", "phone": "+34 94 631 56 57", "hours": null, "kind": null}, {"name": "Mungiako Kinttopeko AEK Euskaltegia", "lat": 43.355835, "lng": -2.852032, "city": "Mungia", "address": "Guridi Eresgile kalea 6", "website": "https://www.aek.eus/eu/component/content/article/91-euskara/euskaltegiak/1010-mungia", "phone": "+34 607 60 13 02", "hours": null, "kind": null}, {"name": "Gorlizko Jentilbaso AEK Euskaltegia", "lat": 43.41168, "lng": -2.935672, "city": "Gorliz", "address": "Iberre plaza 5", "website": "https://www.aek.eus/eu/component/content/article/91-euskara/euskaltegiak/1040-getxo", "phone": "+34 94 677 36 46", "hours": null, "kind": null}, {"name": "Gernikako AEK Euskaltegia", "lat": 43.314767, "lng": -2.678069, "city": "Gernika-Lumo", "address": "Artekalea 3", "website": "https://www.aek.eus/eu/component/content/article/91-euskara/euskaltegiak/1041-gernika", "phone": "+34 946 25 35 96", "hours": null, "kind": null}, {"name": "Plentziako Jentilbaso AEK Euskaltegia", "lat": 43.404136, "lng": -2.946579, "city": "Plentzia", "address": "Kristo enparantza 8", "website": "https://www.aek.eus/eu/component/content/article/91-euskara/euskaltegiak/1040-getxo", "phone": "+34 94 677 36 46", "hours": null, "kind": null}, {"name": "Bermeoko AEK Euskaltegia", "lat": 43.421577, "lng": -2.728702, "city": "Bermeo", "address": "Atalde kalea 17", "website": "https://www.aek.eus/eu/component/content/article/91-euskara/euskaltegiak/1041-gernika", "phone": "+34 609 46 20 18", "hours": null, "kind": null}, {"name": "Ermuko Kaltxango AEK Euskaltegia", "lat": 43.186839, "lng": -2.506013, "city": "Ermua", "address": "Zeharkalea 16", "website": "https://www.aek.eus/eu/component/content/article/91-euskara/euskaltegiak/1052-ermua", "phone": "+34 943 17 19 40", "hours": null, "kind": null}, {"name": "Durangoko Abarrak AEK Euskaltegia", "lat": 43.165023, "lng": -2.631644, "city": "Durango", "address": "Santanoste kalea 4", "website": "https://www.aek.eus/eu/component/content/article/91-euskara/euskaltegiak/1057-durango", "phone": "+34 94 681 73 49", "hours": null, "kind": null}, {"name": "Elorrioko Abizari AEK Euskaltegia", "lat": 43.129469, "lng": -2.53917, "city": "Elorrio", "address": "San Juan kalea 21", "website": "https://www.aek.eus/eu/component/content/article/91-euskara/euskaltegiak/1057-durango", "phone": "+34 94 658 21 11", "hours": null, "kind": null}, {"name": "Derioko Txepetxa AEK Euskaltegia", "lat": 43.292799, "lng": -2.887863, "city": "Derio", "address": "Gorbea kalea 5", "website": "https://www.aek.eus/eu/component/content/article/91-euskara/euskaltegiak/1062-derio", "phone": "+34 94 454 39 67", "hours": null, "kind": null}, {"name": "Basauriko Bolintxu AEK Euskaltegia", "lat": 43.238436, "lng": -2.883913, "city": "Basauri", "address": "Solobarria plaza 4", "website": "https://www.aek.eus/eu/component/content/article/91-euskara/euskaltegiak/1071-basauri", "phone": "+34 94 440 82 64", "hours": null, "kind": null}, {"name": "Galdakaoko Barandiaran AEK Euskaltegia", "lat": 43.229481, "lng": -2.844697, "city": "Galdakao", "address": "Joxe Miguel Barandiaran kalea 8", "website": "https://www.aek.eus/eu/component/content/article/91-euskara/euskaltegiak/1071-basauri", "phone": "+34 94 456 41 19", "hours": null, "kind": null}, {"name": "Arrigorriagako AEK Euskaltegia", "lat": 43.212052, "lng": -2.888507, "city": "Arrigorriaga", "address": "Urgoiti pasealekua 3", "website": "https://www.aek.eus/eu/component/content/article/91-euskara/euskaltegiak/1071-basauri", "phone": "+34 94 671 40 76", "hours": null, "kind": null}, {"name": "Barakaldoko AEK Euskaltegia", "lat": 43.29533, "lng": -2.993737, "city": "Barakaldo", "address": "San Bizenti kalea 11", "website": "https://www.aek.eus/eu/component/content/article/91-euskara/euskaltegiak/1072-barakaldo", "phone": "+34 94 437 20 87", "hours": null, "kind": null}, {"name": "Portugaleteko Xaribari AEK Euskaltegia", "lat": 43.323678, "lng": -3.02037, "city": "Portugalete", "address": "Cristóbal Mello kalea 8", "website": "https://www.aek.eus/eu/component/content/article/91-euskara/euskaltegiak/1165", "phone": "+34 688 74 64 86", "hours": null, "kind": null}, {"name": "Enkarterrietako Udal Euskaltegia", "lat": 43.21323, "lng": -3.129159, "city": null, "address": null, "website": null, "phone": null, "hours": null, "kind": null}, {"name": "Enkarterriko AEK Euskaltegia", "lat": 43.213109, "lng": -3.128863, "city": "Zalla", "address": "Lusa auzoa 3", "website": "https://www.aek.eus/eu/component/content/article/91-euskara/euskaltegiak/983-enkarterriko-aek", "phone": "+34 946 67 03 12", "hours": null, "kind": null}, {"name": "Enkarterriko AEK Euskaltegia", "lat": 43.193778, "lng": -3.19431, "city": "Balmaseda", "address": "Martin Mendia kalea 15", "website": "https://www.aek.eus/eu/component/content/article/91-euskara/euskaltegiak/983-enkarterriko-aek", "phone": "+34 946 67 03 12", "hours": null, "kind": null}, {"name": "Tweens&Teens By Kids&Us Pinto", "lat": 40.245696, "lng": -3.696964, "city": null, "address": null, "website": null, "phone": null, "hours": null, "kind": null}, {"name": "Ortuellako AEK Euskaltegia", "lat": 43.310961, "lng": -3.055735, "city": "Ortuella", "address": "Mendialde etxetaldea 13", "website": "https://www.aek.eus/eu/component/content/article/91-euskara/euskaltegiak/990-trapagaran", "phone": "+34 94 664 17 97", "hours": null, "kind": null}, {"name": "Abantoko AEK Euskaltegia", "lat": 43.31366, "lng": -3.073346, "city": "Abanto Zierbena", "address": "Peñukas auzunea 13", "website": "https://www.aek.eus/eu/component/content/article/91-euskara/euskaltegiak/990-trapagaran", "phone": "+34 94 636 94 47", "hours": null, "kind": null}, {"name": "Muskizko AEK Euskaltegia", "lat": 43.321357, "lng": -3.116303, "city": "Muskiz", "address": "Sobalbadun etxetaldea 10", "website": "https://www.aek.eus/eu/component/content/article/91-euskara/euskaltegiak/990-trapagaran?Itemid=1405", "phone": "+34 94 670 77 74", "hours": null, "kind": null}, {"name": "Sestaoko AEK Euskaltegia", "lat": 43.309612, "lng": -3.005749, "city": "Sestao", "address": "Iberia kalea 1", "website": "https://www.aek.eus/eu/component/content/article/91-euskara/euskaltegiak/994-sestao", "phone": "+34 944 96 09 00", "hours": null, "kind": null}, {"name": "Lekeitioko AEK Euskaltegia", "lat": 43.360894, "lng": -2.504985, "city": "Lekeitio", "address": "Atea kalea 7", "website": "https://www.aek.eus/es-es/component/content/article/89-gaztelera/euskaltegiak/893-ondarroa-2?Itemid=435", "phone": "+34 94 648 28 69", "hours": null, "kind": null}, {"name": "Wall Street English - Aveiro", "lat": 40.641964, "lng": -8.645921, "city": "Aveiro", "address": "Avenida Congressos da Oposição Democrática 61", "website": null, "phone": null, "hours": null, "kind": null}, {"name": "Playful Learning", "lat": 40.394922, "lng": -3.69499, "city": null, "address": null, "website": null, "phone": null, "hours": null, "kind": null}, {"name": "Porto.Fala", "lat": 41.147019, "lng": -8.599566, "city": "Porto", "address": "Rua do Barão de São Cosme 266", "website": "https://www.portofala.pt/", "phone": "+351 22 536 1842", "hours": null, "kind": null}, {"name": "Centro de Inglés CMD", "lat": 42.595955, "lng": -5.608858, "city": null, "address": null, "website": null, "phone": null, "hours": null, "kind": null}, {"name": "Languages Rock", "lat": 43.240797, "lng": -5.557657, "city": null, "address": null, "website": null, "phone": null, "hours": null, "kind": null}, {"name": "Allan School of English", "lat": 41.505185, "lng": -5.745649, "city": "Zamora", "address": "Calle del Riego 6", "website": "https://www.allanschoolofenglish.es/", "phone": null, "hours": "Mo-Th 09:00-13:00,16:00-22:00; Fr 09:00-13:00", "kind": null}, {"name": "Aula de Estudios Orientales Alas", "lat": 41.507121, "lng": -5.744688, "city": "Zamora", "address": "Calle del Doctor Carracido 7D", "website": "https://www.aula-alas.com/", "phone": null, "hours": "We 15:00–21:30; Th-Fr 12:30-21:30; Sa 11:00-14:00", "kind": null}, {"name": "La Casita del Inglés", "lat": 40.55541, "lng": -3.65918, "city": "Alcobendas", "address": "Paseo de Fuente Lucha 20", "website": null, "phone": "+34 633 205 216", "hours": "Mo-Th 16:30-19:30; Fr 17:00-19:00; Sa 11:00-13:00", "kind": null}, {"name": "Centro de Inglês", "lat": 41.338299, "lng": -8.476301, "city": "Santo Tirso", "address": "Praça Camilo Castelo Branco", "website": null, "phone": "+351 252 859 674", "hours": "Mo 08:30-22:00; Tu-Sa 00:00-24:00; Su off; PH off", "kind": null}, {"name": "Le Cours Lambert", "lat": 43.248911, "lng": -5.774937, "city": null, "address": null, "website": null, "phone": null, "hours": null, "kind": null}, {"name": "English academy", "lat": 40.424738, "lng": -3.568022, "city": null, "address": null, "website": null, "phone": null, "hours": null, "kind": null}, {"name": "Escuela Oficial de Idiomas de Fuenlabrada", "lat": 40.290589, "lng": -3.806936, "city": null, "address": null, "website": null, "phone": null, "hours": null, "kind": null}, {"name": "Escuela Oficial de Idiomas de Valdemoro", "lat": 40.188824, "lng": -3.691246, "city": "Valdemoro", "address": "Calle Cuba 3", "website": "http://www.educa.madrid.org/eoi.valdemoro.valdemoro", "phone": "+34918955640", "hours": null, "kind": null}, {"name": "Escuela Oficial de Idiomas Valdezarza", "lat": 40.478584, "lng": -3.721481, "city": "Madrid", "address": "Calle de Fermín Caballero 92", "website": null, "phone": null, "hours": null, "kind": null}, {"name": "Escuela Oficial de Idiomas de Fuenlabrada", "lat": 40.291211, "lng": -3.808628, "city": null, "address": null, "website": null, "phone": null, "hours": null, "kind": null}, {"name": "Escuela Oficial de Idiomas de Ponferrada", "lat": 42.551174, "lng": -6.594088, "city": "Ponferrada", "address": "Vía Río Burbia", "website": null, "phone": null, "hours": null, "kind": null}, {"name": "Escuela Oficial de Idiomas de Pozuelo de Alarcón", "lat": 40.449886, "lng": -3.800712, "city": null, "address": "Avenida de Juan XXIII 4", "website": "http://www.educa.madrid.org/eoi.pozuelo.pozuelodealarcon", "phone": "+34917152317;+34917152350", "hours": null, "kind": null}, {"name": "Udaberria euskaltegia", "lat": 42.857733, "lng": -2.677134, "city": null, "address": null, "website": "https://www.udaberria.eus/es/", "phone": null, "hours": null, "kind": null}, {"name": "Barakaldoko Hizkuntza Eskola", "lat": 43.296732, "lng": -2.989605, "city": "Barakaldo", "address": "Juan de Garay kalea 7", "website": null, "phone": null, "hours": null, "kind": null}, {"name": "Escuela Oficial de Idiomas de Llanes", "lat": 43.424121, "lng": -4.759449, "city": null, "address": null, "website": null, "phone": null, "hours": null, "kind": null}, {"name": "La Idiomería", "lat": 40.410517, "lng": -3.707772, "city": "Madrid", "address": "Calle de la Ruda 6", "website": "https://www.laidiomeria.com/", "phone": "+34 910 293635", "hours": null, "kind": null}, {"name": "Escuela Oficial de Idiomas", "lat": 41.508412, "lng": -5.735961, "city": null, "address": null, "website": null, "phone": null, "hours": null, "kind": null}, {"name": "Escuela Oficial de Idiomas de Burgos", "lat": 42.350437, "lng": -3.686727, "city": null, "address": null, "website": "http://eoiburgos.centros.educa.jcyl.es", "phone": "+34 947 21 32 52", "hours": null, "kind": null}, {"name": "Escuela Oficial de Idiomas de Bermeo", "lat": 43.419898, "lng": -2.738367, "city": null, "address": null, "website": null, "phone": null, "hours": null, "kind": null}, {"name": "Escuela Oficial de Idiomas", "lat": 42.002541, "lng": -4.521666, "city": null, "address": null, "website": "http://eoipalencia.centros.educa.jcyl.es/sitio/", "phone": "+34 979 720 264", "hours": null, "kind": null}, {"name": "Escuela Oficial de Idiomas", "lat": 41.635406, "lng": -4.721809, "city": "Valladolid", "address": "Avenida de Segovia 48", "website": null, "phone": "+34 983479266", "hours": null, "kind": null}, {"name": "Escola Oficial de Idiomas", "lat": 43.485254, "lng": -8.229605, "city": "Ferrol", "address": "Rúa Real 29", "website": "http://www.edu.xunta.gal/centros/eoideferrol/", "phone": "+34 981 324025", "hours": null, "kind": null}, {"name": "Udal Euskaltegia", "lat": 43.380155, "lng": -2.981708, "city": null, "address": null, "website": null, "phone": null, "hours": null, "kind": null}, {"name": "Escuela Oficial de Idiomas", "lat": 40.601136, "lng": -4.134912, "city": null, "address": null, "website": null, "phone": null, "hours": null, "kind": null},