{
 "source": "CAM + DOGV Valencia + Andalucía + Murcia + Castilla-La Mancha + Canarias",
 "count": 2636,
 "breakdown_by_ccaa": {
  "Madrid": 802,
  "Valenciana": 103,
  "Andalucía": 1384,
  "Murcia": 74,
  "Castilla-La Mancha": 57,
  "Canarias": 216
 },
 "features": [
  {
   "codigo": "28010722",
   "name": "Joaquín Costa",
   "municipio": "ARGANZUELA",
   "etapa": "",
   "tipo": "CP INF-PRI",
   "lat": 40.4061304,
   "lng": -3.7143182,
   "neae_types": [
    "TEA"
   ],
   "ccaa": "Madrid",
   "source": "CAM — centros preferentes (full HTML lists)",
   "address": "Pº Pontones, 8 -28005 Madrid",
   "phone": "91 365 36 32",
   "website": "http://www.educa.madrid.org/cp.joaquincosta.madrid"
  },
  {
   "codigo": "28005830",
   "name": "CP INF- PRI Marqués de Marcenado",
   "municipio": "ARGANZUELA",
   "etapa": "",
   "tipo": "",
   "lat": 40.4103331,
   "lng": -3.720331,
   "neae_types": [
    "TEA"
   ],
   "ccaa": "Madrid",
   "source": "CAM — centros preferentes (full HTML lists)",
   "address": "C/ Linneo, 31 -28005 Madrid",
   "phone": "91 365 85 88",
   "website": "http://www.educa.madrid.org/cp.marquesdemarcenado.madrid"
  },
  {
   "codigo": "28010850",
   "name": "Miguel de Unamuno",
   "municipio": "ARGANZUELA",
   "etapa": "",
   "tipo": "CP INF-PRI",
   "lat": 40.3946562,
   "lng": -3.6932899,
   "neae_types": [
    "TEA"
   ],
   "ccaa": "Madrid",
   "source": "CAM — centros preferentes (full HTML lists)",
   "address": "C/ De Alicante 5 - 28045 Madrid",
   "phone": "91 528 25 54",
   "website": "http://www.educa.madrid.org/cp.unamuno.madrid"
  },
  {
   "codigo": "28071371",
   "name": "Plácido Domingo",
   "municipio": "ARGANZUELA",
   "etapa": "",
   "tipo": "CP INF-PRI",
   "lat": 40.397291,
   "lng": -3.6780488,
   "neae_types": [
    "TEA"
   ],
   "ccaa": "Madrid",
   "source": "CAM — centros preferentes (full HTML lists)",
   "address": "C/ del Tejo, 5 -28045 Madrid",
   "phone": "91 765 07 89"
  },
  {
   "codigo": "28012640",
   "name": "Salesianos de Atocha",
   "municipio": "ARGANZUELA",
   "etapa": "",
   "tipo": "CPR INF-PRI-SEC",
   "lat": 40.4058529,
   "lng": -3.696652,
   "neae_types": [
    "TEA"
   ],
   "ccaa": "Madrid",
   "source": "CAM — centros preferentes (full HTML lists)",
   "address": "Ronda De Atocha 27 - 28012, Madrid",
   "phone": "91 506 21 00"
  },
  {
   "codigo": "28046881",
   "name": "San Saturio",
   "municipio": "ARGANZUELA",
   "etapa": "",
   "tipo": "CPR INF-PRI-SEC",
   "lat": 40.4038102,
   "lng": -3.6997747,
   "neae_types": [
    "TEA"
   ],
   "ccaa": "Madrid",
   "source": "CAM — centros preferentes (full HTML lists)",
   "address": "C/ De Sebastián Herrera, 21-23 - 28012 Arganzuela",
   "phone": "91 539 41 75",
   "website": "http://www.educa.madrid.org/cc.sansaturio.madrid"
  },
  {
   "codigo": "28020910",
   "name": "Juan de la Cierva",
   "municipio": "ARGANZUELA",
   "etapa": "",
   "tipo": "IES",
   "lat": 40.4020057,
   "lng": -3.7061795,
   "neae_types": [
    "TEA"
   ],
   "ccaa": "Madrid",
   "source": "CAM — centros preferentes (full HTML lists)",
   "address": "C/DE LA CAOBA, 1 - 28005 Madrid",
   "phone": "91 506 46 10",
   "website": "http://www.educa.madrid.org/ies.juandelacierva.madrid"
  },
  {
   "codigo": "28018502",
   "name": "Ciudad de Guadalajara",
   "municipio": "BARAJAS",
   "etapa": "",
   "tipo": "CP INF-PRI",
   "lat": 40.4590033,
   "lng": -3.5849421,
   "neae_types": [
    "TEA"
   ],
   "ccaa": "Madrid",
   "source": "CAM — centros preferentes (full HTML lists)",
   "address": "C/ Del Bergantín, 13 - 28042 Barajas",
   "phone": "91 747 09 38",
   "website": "http://www.educa.madrid.org/cp.ciudaddeguadalajara.madrid"
  },
  {
   "codigo": "28018708",
   "name": "Ciudad de Zaragoza",
   "municipio": "BARAJAS",
   "etapa": "",
   "tipo": "CP INF-PRI",
   "lat": 40.4602817,
   "lng": -3.5904072,
   "neae_types": [
    "TEA"
   ],
   "ccaa": "Madrid",
   "source": "CAM — centros preferentes (full HTML lists)",
   "address": "C/ Manuel Aguilar Muñoz, 1 -28042 Madrid",
   "phone": "91 329 37 56",
   "website": "http://www.educa.madrid.org/cp.ciudaddezaragoz.madrid"
  },
  {
   "codigo": "28069285",
   "name": "Colegio Gaudem",
   "municipio": "BARAJAS",
   "etapa": "",
   "tipo": "CPR INF-PRI-SEC",
   "lat": 40.4730837,
   "lng": -3.594306,
   "neae_types": [
    "Auditiva",
    "TEA"
   ],
   "ccaa": "Madrid",
   "source": "CAM — centros preferentes (full HTML lists)",
   "address": "C/ Playa de Barlovento, 14 - 28042 Madrid",
   "phone": "91 388 64 77",
   "website": "https://www.gaudem.es"
  },
  {
   "codigo": "28015033",
   "name": "San Pedro Apóstol",
   "municipio": "BARAJAS",
   "etapa": "",
   "tipo": "CPR INF-PRI-SEC",
   "lat": 40.4678986,
   "lng": -3.5878939,
   "neae_types": [
    "TEA"
   ],
   "ccaa": "Madrid",
   "source": "CAM — centros preferentes (full HTML lists)",
   "address": "C/ De Babilonia, 19 - 28042 Madrid",
   "phone": "91 305 56 05",
   "website": "https://www.sanpedroapostol.es/"
  },
  {
   "codigo": "28005039",
   "name": "Antonio Machado",
   "municipio": "CARABANCHEL",
   "etapa": "",
   "tipo": "CP INF-PRI",
   "lat": 40.3671592,
   "lng": -3.7546691,
   "neae_types": [
    "TEA"
   ],
   "ccaa": "Madrid",
   "source": "CAM — centros preferentes (full HTML lists)",
   "address": "C/ De Allariz, 3 - 28044 Madrid",
   "phone": "91 508 86 61"
  },
  {
   "codigo": "28005179",
   "name": "Capitán Cortés",
   "municipio": "CARABANCHEL",
   "etapa": "",
   "tipo": "CP INF-PRI",
   "lat": 40.3805586,
   "lng": -3.7428961,
   "neae_types": [
    "TEA"
   ],
   "ccaa": "Madrid",
   "source": "CAM — centros preferentes (full HTML lists)",
   "address": "C/ De Monseñor Oscar Romero, 17 - 28025 Madrid",
   "phone": "91 462 86 62"
  },
  {
   "codigo": "28010497",
   "name": "Concepción Arenal",
   "municipio": "CARABANCHEL",
   "etapa": "",
   "tipo": "CP INF-PRI",
   "lat": 40.3975495,
   "lng": -3.7150473,
   "neae_types": [
    "TEA"
   ],
   "ccaa": "Madrid",
   "source": "CAM — centros preferentes (full HTML lists)",
   "address": "C/ De Antonio López, 1 - 28019 Madrid",
   "phone": "91 565 27 02",
   "website": "http://www.educa.madrid.org/cp.concepcionarenal.madrid"
  },
  {
   "codigo": "28005568",
   "name": "Isaac Peral",
   "municipio": "CARABANCHEL",
   "etapa": "",
   "tipo": "CP INF-PRI",
   "lat": 40.3866956,
   "lng": -3.7309691,
   "neae_types": [
    "TEA"
   ],
   "ccaa": "Madrid",
   "source": "CAM — centros preferentes (full HTML lists)",
   "address": "Glorieta de Rufino Novalvos,  5 - 28025 Madrid",
   "phone": "91 472 67 80",
   "website": "http://www.educa.madrid.org/cp.isaacperal.madrid"
  },
  {
   "codigo": "28031488",
   "name": "Julián Besteiro",
   "municipio": "CARABANCHEL",
   "etapa": "",
   "tipo": "CP INF-PRI",
   "lat": 40.3804233,
   "lng": -3.727761,
   "neae_types": [
    "TEA"
   ],
   "ccaa": "Madrid",
   "source": "CAM — centros preferentes (full HTML lists)",
   "address": "Avda. de Abrantes, 79 -28025 Madrid",
   "phone": "91 560 00 91",
   "website": "http://www.educa.madrid.org/cp.julianbesteiro.madrid"
  },
  {
   "codigo": "28072466",
   "name": "Maestro Padilla",
   "municipio": "CARABANCHEL",
   "etapa": "",
   "tipo": "CP INF-PRI",
   "lat": 40.3626515,
   "lng": -3.7462269,
   "neae_types": [
    "TEA"
   ],
   "ccaa": "Madrid",
   "source": "CAM — centros preferentes (full HTML lists)",
   "address": "Avenida De La Peseta C/V Vía Lusitana s/n - 28054, Madrid",
   "phone": "91 173 18 52",
   "website": "https://www.educa2.madrid.org/web/centro.cp.maestropadilla.madrid"
  },
  {
   "codigo": "28031051",
   "name": "Miguel Servet",
   "municipio": "CARABANCHEL",
   "etapa": "",
   "tipo": "CP INF-PRI",
   "lat": 40.3940299,
   "lng": -3.7368841,
   "neae_types": [
    "TEA"
   ],
   "ccaa": "Madrid",
   "source": "CAM — centros preferentes (full HTML lists)",
   "address": "C/ Fragata, 33 - 28019 Madrid",
   "phone": "91 461 17 57",
   "website": "http://www.educa.madrid.org/cp.miguelservet.madrid"
  },
  {
   "codigo": "28006056",
   "name": "Perú",
   "municipio": "CARABANCHEL",
   "etapa": "",
   "tipo": "CP INF-PRI",
   "lat": 40.3944241,
   "lng": -3.7146159,
   "neae_types": [
    "TEA"
   ],
   "ccaa": "Madrid",
   "source": "CAM — centros preferentes (full HTML lists)",
   "address": "C/ Baleares, 18 - 28019 Madrid",
   "phone": "91 569 14 65",
   "website": "http://www.educa.madrid.org/cp.peru.madrid"
  },
  {
   "codigo": "28063763",
   "name": "Pinar de San José",
   "municipio": "CARABANCHEL",
   "etapa": "",
   "tipo": "CP INF-PRI",
   "lat": 40.3612445,
   "lng": -3.7592607,
   "neae_types": [
    "Motora",
    "TEA"
   ],
   "ccaa": "Madrid",
   "source": "CAM — centros preferentes (full HTML lists)",
   "address": "C/ Patrimonio de la Humanidad, 39 - 28054 Madrid",
   "phone": "91 511 24 17"
  },
  {
   "codigo": "28010965",
   "name": "República de Colombia",
   "municipio": "CARABANCHEL",
   "etapa": "",
   "tipo": "CP INF-PRI",
   "lat": 40.3756637,
   "lng": -3.7366196,
   "neae_types": [
    "TEA"
   ],
   "ccaa": "Madrid",
   "source": "CAM — centros preferentes (full HTML lists)",
   "address": "Plaza De Alloz 3 - 28025 Madrid",
   "phone": "91 465 05 87",
   "website": "http://www.educa.madrid.org/cp.colombia.madrid"
  },
  {
   "codigo": "28006172",
   "name": "República de Ecuador",
   "municipio": "CARABANCHEL",
   "etapa": "",
   "tipo": "CP INF-PRI",
   "lat": 40.388072,
   "lng": -3.7253575,
   "neae_types": [
    "TEA"
   ],
   "ccaa": "Madrid",
   "source": "CAM — centros preferentes (full HTML lists)",
   "address": "C/ Valle De Oro, 41 -28019 Madrid",
   "phone": "91 460 32 84",
   "website": "http://www.educa.madrid.org/cp.ecuador.madrid"
  },
  {
   "codigo": "28006160",
   "name": "República Dominicana",
   "municipio": "CARABANCHEL",
   "etapa": "",
   "tipo": "CP INF-PRI",
   "lat": 40.3759699,
   "lng": -3.7518291,
   "neae_types": [
    "TEA"
   ],
   "ccaa": "Madrid",
   "source": "CAM — centros preferentes (full HTML lists)",
   "address": "Ronda de Don Bosco, 2 - 28044 Madrid",
   "phone": "91 462 90 60",
   "website": "http://www.educa.madrid.org/cp.republicadominicana.madrid"
  },
  {
   "codigo": "28011261",
   "name": "Amorós",
   "municipio": "CARABANCHEL",
   "etapa": "",
   "tipo": "CPR INF-PRI-SEC",
   "lat": 40.3703682,
   "lng": -3.7564145,
   "neae_types": [
    "TEA"
   ],
   "ccaa": "Madrid",
   "source": "CAM — centros preferentes (full HTML lists)",
   "address": "C/ Gómez de Arteche, 28 - 28044 Madrid",
   "phone": "91 511 11 30",
   "website": "http://www.colegioamoros.org"
  },
  {
   "codigo": "28073151",
   "name": "Colegio Arenales Carabanchel",
   "municipio": "CARABANCHEL",
   "etapa": "",
   "tipo": "CPR INF-PRI-SEC",
   "lat": 40.3738753,
   "lng": -3.7375168,
   "neae_types": [
    "TEA"
   ],
   "ccaa": "Madrid",
   "source": "CAM — centros preferentes (full HTML lists)",
   "address": "Avda. De Los Poblados 151 - 28025 Madrid",
   "phone": "91 225 06 10"
  },
  {
   "codigo": "28022475",
   "name": "Salesianos Carabanchel Beato Miguel Rúa",
   "municipio": "CARABANCHEL",
   "etapa": "",
   "tipo": "CPR INF-PRI-SEC",
   "lat": 40.3746437,
   "lng": -3.7528255,
   "neae_types": [
    "TEA"
   ],
   "ccaa": "Madrid",
   "source": "CAM — centros preferentes (full HTML lists)",
   "address": "Ronda de Don Bosco, 3 - 28044 Madrid",
   "phone": "91 508 76 40"
  },
  {
   "codigo": "28013115",
   "name": "Ntra. Sra. de las Escuelas Pías",
   "municipio": "CARABANCHEL",
   "etapa": "",
   "tipo": "CPR INF-PRI-SEC",
   "lat": 40.3754381,
   "lng": -3.7501059,
   "neae_types": [
    "TEA"
   ],
   "ccaa": "Madrid",
   "source": "CAM — centros preferentes (full HTML lists)",
   "address": "C/ Eugenia de Montijo, 83 - 28044 Madrid",
   "phone": "91 465 44 00",
   "website": "https://www.escolapiascarabanchel.com/"
  },
  {
   "codigo": "28014533",
   "name": "Santa Rita",
   "municipio": "CARABANCHEL",
   "etapa": "",
   "tipo": "CPR INF-PRI-SEC",
   "lat": 40.3803503,
   "lng": -3.7446332,
   "neae_types": [
    "TEA"
   ],
   "ccaa": "Madrid",
   "source": "CAM — centros preferentes (full HTML lists)",
   "address": "C/ Eugenia de Montijo, 53 -28025 Madrid",
   "phone": "91 462 86 83"
  },
  {
   "codigo": "28014867",
   "name": "Vedruna",
   "municipio": "CARABANCHEL",
   "etapa": "",
   "tipo": "CPR INF-PRI-SEC",
   "lat": 40.3841264,
   "lng": -3.7421593,
   "neae_types": [
    "TEA"
   ],
   "ccaa": "Madrid",
   "source": "CAM — centros preferentes (full HTML lists)",
   "address": "C/ del Espinar, 41- 28025 MADRID",
   "phone": "91 465 01 09"
  },
  {
   "codigo": "28020958",
   "name": "Emperatriz María de Austria",
   "municipio": "CARABANCHEL",
   "etapa": "",
   "tipo": "IES",
   "lat": 40.3879284,
   "lng": -3.7172359,
   "neae_types": [
    "TEA"
   ],
   "ccaa": "Madrid",
   "source": "CAM — centros preferentes (full HTML lists)",
   "address": "C/Antonio De Leyva, 84 - 28019 Madrid",
   "phone": "91 469 24 25",
   "website": "http://www.educa.madrid.org/ies.emperatrizmaria.madrid"
  },
  {
   "codigo": "28074918",
   "name": "Francisco Ayala",
   "municipio": "CARABANCHEL",
   "etapa": "",
   "tipo": "IES",
   "lat": 40.3657683,
   "lng": -3.7611373,
   "neae_types": [
    "Motora",
    "TEA"
   ],
   "ccaa": "Madrid",
   "source": "CAM — centros preferentes (full HTML lists)",
   "address": "C/ Del Jacobeo, 33 - 28054 Madrid",
   "phone": "915116804"
  },
  {
   "codigo": "28021008",
   "name": "Vista Alegre",
   "municipio": "CARABANCHEL",
   "etapa": "",
   "tipo": "IES",
   "lat": 40.3821934,
   "lng": -3.7365669,
   "neae_types": [
    "TEA"
   ],
   "ccaa": "Madrid",
   "source": "CAM — centros preferentes (full HTML lists)",
   "address": "C/General Ricardos, 177 - 28025 Madrid",
   "phone": "91 462 86 00",
   "website": "http://www.educa.madrid.org/ies.vistaalegre.madrid"
  },
  {
   "codigo": "28010916",
   "name": "Palacio Valdés",
   "municipio": "CENTRO",
   "etapa": "",
   "tipo": "CP INF-PRI",
   "lat": 40.4106086,
   "lng": -3.6929686,
   "neae_types": [
    "TEA"
   ],
   "ccaa": "Madrid",
   "source": "CAM — centros preferentes (full HTML lists)",
   "address": "Paseo del Prado, 38 -28014 Madrid",
   "phone": "91 420 33 70"
  },
  {
   "codigo": "28010679",
   "name": "Pi i Margall",
   "municipio": "CENTRO",
   "etapa": "",
   "tipo": "CP INF-PRI",
   "lat": 40.4268285,
   "lng": -3.7046266,
   "neae_types": [
    "TEA"
   ],
   "ccaa": "Madrid",
   "source": "CAM — centros preferentes (full HTML lists)",
   "address": "Plaza Del Dos De Mayo 2 - 28004 Madrid",
   "phone": "91 532 34 20",
   "website": "http://www.educa.madrid.org/cp.piimargall.madrid"
  },
  {
   "codigo": "28006381",
   "name": "Santa María",
   "municipio": "CENTRO",
   "etapa": "",
   "tipo": "CP INF-PRI",
   "lat": 40.4060574,
   "lng": -3.7065563,
   "neae_types": [
    "TEA"
   ],
   "ccaa": "Madrid",
   "source": "CAM — centros preferentes (full HTML lists)",
   "address": "C/ Casino, 7 - 28005 Madrid",
   "phone": "91 527 52 81",
   "website": "http://www.educa.madrid.org/cp.santamaria.madrid"
  },
  {
   "codigo": "28011040",
   "name": "Vázquez de Mella",
   "municipio": "CENTRO",
   "etapa": "",
   "tipo": "CP INF-PRI",
   "lat": 40.4121712,
   "lng": -3.7141607,
   "neae_types": [
    "TEA"
   ],
   "ccaa": "Madrid",
   "source": "CAM — centros preferentes (full HTML lists)",
   "address": "C/ Bailén, 18 - 28005 Madrid",
   "phone": "91 365 48 78",
   "website": "http://www.educa.madrid.org/cp.vazquezdemella.madrid"
  },
  {
   "codigo": "28019981",
   "name": "Centro de Estudios Castilla",
   "municipio": "CENTRO",
   "etapa": "",
   "tipo": "CPR INF-PRI",
   "lat": 40.4093195,
   "lng": -3.7053093,
   "neae_types": [
    "TEA"
   ],
   "ccaa": "Madrid",
   "source": "CAM — centros preferentes (full HTML lists)",
   "address": "C/ Del Oso 23 - 28012 Madrid",
   "phone": "91 530 32 92",
   "website": "http://www.centroestudioscastilla.es"
  },
  {
   "codigo": "28014454",
   "name": "Santa Isabel",
   "municipio": "CENTRO",
   "etapa": "",
   "tipo": "CPR INF-PRI-SEC",
   "lat": 40.4257001,
   "lng": -3.6978772,
   "neae_types": [
    "TEA"
   ],
   "ccaa": "Madrid",
   "source": "CAM — centros preferentes (full HTML lists)",
   "address": "C/ Hortaleza, 77 - 28004 Madrid",
   "phone": "91 310 09 16 / 91 308 20 32",
   "website": "https://www.santaisabelmadrid.com/"
  },
  {
   "codigo": "28005571",
   "name": "Luis Bello",
   "municipio": "CHAMARTÍN",
   "etapa": "",
   "tipo": "CP INF-PRI",
   "lat": 40.4435951,
   "lng": -3.6733485,
   "neae_types": [
    "TEA"
   ],
   "ccaa": "Madrid",
   "source": "CAM — centros preferentes (full HTML lists)",
   "address": "C/ Luis Cabrera, 66 - 28002 Madrid",
   "phone": "91 220 55 33",
   "website": "http://www.educa.madrid.org/cp.luisbello.madrid"
  },
  {
   "codigo": "28021124",
   "name": "Arquitecto Gaudí",
   "municipio": "CHAMARTÍN",
   "etapa": "",
   "tipo": "CP INF-PRI-SEC",
   "lat": 40.4652948,
   "lng": -3.6693708,
   "neae_types": [
    "TEA"
   ],
   "ccaa": "Madrid",
   "source": "CAM — centros preferentes (full HTML lists)",
   "address": "C/ De Rosa Jardón, 10 - 28016 Madrid",
   "phone": "91 350 65 64",
   "website": "http://www.educa.madrid.org/cp.arquitectogaudi.madrid"
  },
  {
   "codigo": "28015148",
   "name": "Claret",
   "municipio": "CHAMARTÍN",
   "etapa": "",
   "tipo": "CPR INF-PRI-SEC",
   "lat": 40.4406458,
   "lng": -3.6721223,
   "neae_types": [
    "TEA"
   ],
   "ccaa": "Madrid",
   "source": "CAM — centros preferentes (full HTML lists)",
   "address": "C/ Corazón de María, 1 - 28002 Madrid",
   "phone": "91 415 21 54",
   "website": "https://www.claretmadrid.es/"
  },
  {
   "codigo": "28014478",
   "name": "Fundación Santamarca",
   "municipio": "CHAMARTÍN",
   "etapa": "",
   "tipo": "CPR INF-PRI-SEC",
   "lat": 40.4504542,
   "lng": -3.6736534,
   "neae_types": [
    "TEA"
   ],
   "ccaa": "Madrid",
   "source": "CAM — centros preferentes (full HTML lists)",
   "address": "C/ De Marcenado, 50 - 28002 Madrid",
   "phone": "91 415 86 40",
   "website": "https://colegiofundacionsantamarca.es/"
  },
  {
   "codigo": "28019762",
   "name": "María Virgen",
   "municipio": "CHAMARTÍN",
   "etapa": "",
   "tipo": "CPR INF-PRI-SEC",
   "lat": 40.4552317,
   "lng": -3.684774,
   "neae_types": [
    "TEA"
   ],
   "ccaa": "Madrid",
   "source": "CAM — centros preferentes (full HTML lists)",
   "address": "C/ Padre Damián, 20 -28036 Madrid",
   "phone": "91 344 01 63",
   "website": "https://www.jesuitinasmariavirgen.es/"
  },
  {
   "codigo": "28014363",
   "name": "Santa Catalina de Sena",
   "municipio": "CHAMARTÍN",
   "etapa": "",
   "tipo": "CPR INF-PRI-SEC",
   "lat": 40.4606573,
   "lng": -3.6727243,
   "neae_types": [
    "TEA"
   ],
   "ccaa": "Madrid",
   "source": "CAM — centros preferentes (full HTML lists)",
   "address": "Avenida De Alfonso Xiii 160 - 28016 Madrid",
   "phone": "91 359 56 05",
   "website": "https://www.dominicasmadrid.es/"
  },
  {
   "codigo": "28005210",
   "name": "Cervantes",
   "municipio": "CHAMBERÍ",
   "etapa": "",
   "tipo": "CP INF-PRI",
   "lat": 40.38513,
   "lng": -3.7253361,
   "neae_types": [
    "TEA"
   ],
   "ccaa": "Madrid",
   "source": "CAM — centros preferentes (full HTML lists)",
   "address": "C/ Raimundo Fernández Villaverde, 4 - 28003 Madrid",
   "phone": "915330837"
  },
  {
   "codigo": "28005258",
   "name": "Claudio Moyano",
   "municipio": "CHAMBERÍ",
   "etapa": "",
   "tipo": "CP INF-PRI",
   "lat": 40.4391106,
   "lng": -3.7088234,
   "neae_types": [
    "TEA"
   ],
   "ccaa": "Madrid",
   "source": "CAM — centros preferentes (full HTML lists)",
   "address": "C/ Cea Bermúdez, 26 - 28003 Madrid",
   "phone": "91 533 57 18",
   "website": "http://www.educa.madrid.org/cp.claudiomoyano.madrid"
  },
  {
   "codigo": "28005076",
   "name": "De Prácticas Asunción Rincón",
   "municipio": "CHAMBERÍ",
   "etapa": "",
   "tipo": "CP INF-PRI",
   "lat": 40.4410286,
   "lng": -3.7074924,
   "neae_types": [
    "TEA"
   ],
   "ccaa": "Madrid",
   "source": "CAM — centros preferentes (full HTML lists)",
   "address": "Avda. de Filipinas, 5 - 28003",
   "phone": "91 554 21 18",
   "website": "http://www.educa.madrid.org/cp.asuncionrincon.madrid"
  },
  {
   "codigo": "28010618",
   "name": "Fernando El Católico",
   "municipio": "CHAMBERÍ",
   "etapa": "",
   "tipo": "CP INF-PRI",
   "lat": 40.4343068,
   "lng": -3.7093101,
   "neae_types": [
    "TEA"
   ],
   "ccaa": "Madrid",
   "source": "CAM — centros preferentes (full HTML lists)",
   "address": "C/ Fernando El Católico, 16 - 28015 Madrid",
   "phone": "91 444 29 02",
   "website": "http://www.educa.madrid.org/cp.fernandoelcatolico.madrid"
  },
  {
   "codigo": "28006238",
   "name": "Rufino Blanco",
   "municipio": "CHAMBERÍ",
   "etapa": "",
   "tipo": "CP INF-PRI",
   "lat": 40.4380859,
   "lng": -3.7020997,
   "neae_types": [
    "TEA"
   ],
   "ccaa": "Madrid",
   "source": "CAM — centros preferentes (full HTML lists)",
   "address": "C/ General Álvarez De Castro, 46 -28010 Madrid",
   "phone": "91 448 40 83",
   "website": "http://www.educa.madrid.org/cp.rufinoblanco.madrid"
  },
  {
   "codigo": "28011258",
   "name": "Amor Misericordioso",
   "municipio": "CHAMBERÍ",
   "etapa": "",
   "tipo": "CPR INF-PRI-SEC",
   "lat": 40.442431,
   "lng": -3.7118206,
   "neae_types": [
    "TEA"
   ],
   "ccaa": "Madrid",
   "source": "CAM — centros preferentes (full HTML lists)",
   "address": "Paseo San Francisco de Sales, 42 - 28003 Madrid",
   "phone": "91 533 22 33",
   "website": "https://www.coamimadrid.es/"
  },
  {
   "codigo": "28020120",
   "name": "Chamberí",
   "municipio": "CHAMBERÍ",
   "etapa": "",
   "tipo": "CPR INF-PRI-SEC",
   "lat": 40.433335,
   "lng": -3.6955827,
   "neae_types": [
    "TEA"
   ],
   "ccaa": "Madrid",
   "source": "CAM — centros preferentes (full HTML lists)",
   "address": "C/ Rafael Calvo, 12 - 28010 Madrid",
   "phone": "91 445 62 50",
   "website": "http://www.chamberi.es"
  },
  {
   "codigo": "28015902",
   "name": "Divina Pastor",
   "municipio": "CHAMBERÍ",
   "etapa": "",
   "tipo": "CPR INF-PRI-SEC",
   "lat": 40.4402412,
   "lng": -3.7010059,
   "neae_types": [
    "TEA"
   ],
   "ccaa": "Madrid",
   "source": "CAM — centros preferentes (full HTML lists)",
   "address": "C/ Santa Engracia, 142 - 28003 Madrid",
   "phone": "91 534 10 12",
   "website": "https://www.divinapastoramad.com/"
  },
  {
   "codigo": "28007917",
   "name": "María Inmaculada",
   "municipio": "CHAMBERÍ",
   "etapa": "",
   "tipo": "CPR INF-PRI-SEC",
   "lat": 40.4344398,
   "lng": -3.6957411,
   "neae_types": [
    "TEA"
   ],
   "ccaa": "Madrid",
   "source": "CAM — centros preferentes (full HTML lists)",
   "address": "Paseo General Martínez Campos, 18- 28010 Madrid",
   "phone": "91 446 61 19",
   "website": "http://www.educa.madrid.org/cc.mariainmaculada-chamberi.madrid"
  },
  {
   "codigo": "28034441",
   "name": "San Isidoro de Sevilla",
   "municipio": "CHAMBERÍ",
   "etapa": "",
   "tipo": "IES",
   "lat": 40.4454906,
   "lng": -3.7192723,
   "neae_types": [
    "TEA"
   ],
   "ccaa": "Madrid",
   "source": "CAM — centros preferentes (full HTML lists)",
   "address": "Plaza del Marqués de Comillas, 1 -28040 Madrid",
   "phone": "91 533 06 07",
   "website": "http://www.educa.madrid.org/ies.sanisidoro.madrid"
  },
  {
   "codigo": "28010461",
   "name": "Carlos V",
   "municipio": "CIUDAD LINEAL",
   "etapa": "",
   "tipo": "CP INF-PRI",
   "lat": 40.4373159,
   "lng": -3.6546544,
   "neae_types": [
    "TEA"
   ],
   "ccaa": "Madrid",
   "source": "CAM — centros preferentes (full HTML lists)",
   "address": "C/ de La Virgen Del Val, 3 - 28027 Madrid",
   "phone": "91 404 14 81",
   "website": "http://www.educa.madrid.org/cp.carlosquinto.madrid"
  },
  {
   "codigo": "28005261",
   "name": "Conde de Romanones",
   "municipio": "CIUDAD LINEAL",
   "etapa": "",
   "tipo": "CP INF-PRI",
   "lat": 40.4376619,
   "lng": -3.6422947,
   "neae_types": [
    "TEA"
   ],
   "ccaa": "Madrid",
   "source": "CAM — centros preferentes (full HTML lists)",
   "address": "C/ Del Elfo, 143 - 28027 Madrid",
   "phone": "91 367 36 55",
   "website": "http://www.educa.madrid.org/cp.condederomanones.madrid"
  },
  {
   "codigo": "28031804",
   "name": "Gandhi",
   "municipio": "CIUDAD LINEAL",
   "etapa": "",
   "tipo": "CP INF-PRI",
   "lat": 40.4237204,
   "lng": -3.6368547,
   "neae_types": [
    "TEA"
   ],
   "ccaa": "Madrid",
   "source": "CAM — centros preferentes (full HTML lists)",
   "address": "C/ Gandhi, 10 - 28017 Madrid",
   "phone": "91 754 45 92",
   "website": "http://www.educa.madrid.org/cp.gandhi.madrid"
  },
  {
   "codigo": "28010898",
   "name": "Leopoldo Alas",
   "municipio": "CIUDAD LINEAL",
   "etapa": "",
   "tipo": "CP INF-PRI",
   "lat": 40.4277394,
   "lng": -3.6535597,
   "neae_types": [
    "TEA"
   ],
   "ccaa": "Madrid",
   "source": "CAM — centros preferentes (full HTML lists)",
   "address": "C/ de Pedrezuela, 18 - 28017 Madrid",
   "phone": "91 403 37 55",
   "website": "http://www.educa.madrid.org/cp.leopoldoalas.madrid"
  },
  {
   "codigo": "28005945",
   "name": "Nuestra Señora de la Concepción",
   "municipio": "CIUDAD LINEAL",
   "etapa": "",
   "tipo": "CP INF-PRI",
   "lat": 40.4372753,
   "lng": -3.6497815,
   "neae_types": [
    "TEA"
   ],
   "ccaa": "Madrid",
   "source": "CAM — centros preferentes (full HTML lists)",
   "address": "C/ Virgen del Sagrario, 24 - 28027 Madrid",
   "phone": "91 404 02 75",
   "website": "http://www.educa.madrid.org/cp.concepcion.madrid"
  },
  {
   "codigo": "28019658",
   "name": "San Benito",
   "municipio": "CIUDAD LINEAL",
   "etapa": "",
   "tipo": "CP INF-PRI",
   "lat": 40.4439364,
   "lng": -3.6466339,
   "neae_types": [
    "TEA"
   ],
   "ccaa": "Madrid",
   "source": "CAM — centros preferentes (full HTML lists)",
   "address": "C/ De Juan Pérez Zúñiga, 36 - 28027 Madrid",
   "phone": "91 367 08 00 / 91 368 07 35",
   "website": "http://www.educa.madrid.org/cp.sanbenito.madrid"
  },
  {
   "codigo": "28030472",
   "name": "San Juan Bautista",
   "municipio": "CIUDAD LINEAL",
   "etapa": "",
   "tipo": "CP INF-PRI",
   "lat": 40.4514924,
   "lng": -3.6590934,
   "neae_types": [
    "TEA"
   ],
   "ccaa": "Madrid",
   "source": "CAM — centros preferentes (full HTML lists)",
   "address": "C/ De Sorzano, 1 - 28043 Madrid",
   "phone": "91 413 12 25",
   "website": "http://www.educa.madrid.org/ies.sanjuanbautista.madrid"
  },
  {
   "codigo": "28011015",
   "name": "San Juan Bosco",
   "municipio": "CIUDAD LINEAL",
   "etapa": "",
   "tipo": "CP INF-PRI",
   "lat": 40.4194912,
   "lng": -3.6527829,
   "neae_types": [
    "TEA"
   ],
   "ccaa": "Madrid",
   "source": "CAM — centros preferentes (full HTML lists)",
   "address": "C/ De Santa Irene, 2 - 28017 Madrid",
   "phone": "91 405 36 10",
   "website": "http://www.educa.madrid.org/cp.sanjuanbosco.madrid"
  },
  {
   "codigo": "28037399",
   "name": "Alfredo López",
   "municipio": "CIUDAD LINEAL",
   "etapa": "",
   "tipo": "CPR INF",
   "lat": 40.4204958,
   "lng": -3.6303726,
   "neae_types": [
    "TEA"
   ],
   "ccaa": "Madrid",
   "source": "CAM — centros preferentes (full HTML lists)",
   "address": "C/ Villaescusa, 50 - 28017 Madrid",
   "phone": "91 304 19 80"
  },
  {
   "codigo": "28015094",
   "name": "Centro Cultural Elfo",
   "municipio": "CIUDAD LINEAL",
   "etapa": "",
   "tipo": "CPR INF-PRI-SEC",
   "lat": 40.4340867,
   "lng": -3.6489097,
   "neae_types": [
    "TEA"
   ],
   "ccaa": "Madrid",
   "source": "CAM — centros preferentes (full HTML lists)",
   "address": "C/ Del Elfo 74 - 28027 Madrid",
   "phone": "91 367 36 53",
   "website": "https://www.colegioelfo.com/"
  },
  {
   "codigo": "28062217",
   "name": "La Purísima",
   "municipio": "CIUDAD LINEAL",
   "etapa": "",
   "tipo": "CPR INF-PRI-SEC",
   "lat": 40.4272719,
   "lng": -3.6579278,
   "neae_types": [
    "Auditiva",
    "TEA"
   ],
   "ccaa": "Madrid",
   "source": "CAM — centros preferentes (full HTML lists)",
   "address": "C/ Ricardo Ortiz, 29 - 28017 Madrid",
   "phone": "91 726 28 05",
   "website": "http://lpm.hfi.org.es"
  },
  {
   "codigo": "28013280",
   "name": "Nuestra Señora de la Merced",
   "municipio": "CIUDAD LINEAL",
   "etapa": "",
   "tipo": "CPR INF-PRI-SEC",
   "lat": 40.4221652,
   "lng": -3.6550889,
   "neae_types": [
    "TEA"
   ],
   "ccaa": "Madrid",
   "source": "CAM — centros preferentes (full HTML lists)",
   "address": "C/ Poeta Blas de Otero, 5 - 28017 Madrid",
   "phone": "91 355 63 94",
   "website": "https://colegioseilamerced.com/"
  },
  {
   "codigo": "28013450",
   "name": "Nuestra Señora de las Victorias",
   "municipio": "CIUDAD LINEAL",
   "etapa": "",
   "tipo": "CPR INF-PRI-SEC",
   "lat": 40.4288153,
   "lng": -3.6540804,
   "neae_types": [
    "TEA"
   ],
   "ccaa": "Madrid",
   "source": "CAM — centros preferentes (full HTML lists)",
   "address": "C/ del Apostol Santiago, 72 - 28017 Madrid",
   "phone": "91 403 53 03",
   "website": "https://filipensesmadrid.net/"
  },
  {
   "codigo": "28038318",
   "name": "Alhambra",
   "municipio": "FUENCARRAL-EL PARDO",
   "etapa": "",
   "tipo": "CP INF-PRI",
   "lat": 40.4827744,
   "lng": -3.7271368,
   "neae_types": [
    "TEA"
   ],
   "ccaa": "Madrid",
   "source": "CAM — centros preferentes (full HTML lists)",
   "address": "C/ De Ramón Gómez De La Serna, 103 - 28035 Madrid",
   "phone": "91 316 22 73",
   "website": "http://www.educa.madrid.org/cp.alhambra.madrid"
  },
  {
   "codigo": "28072478",
   "name": "Antonio Fontán",
   "municipio": "FUENCARRAL-EL PARDO",
   "etapa": "",
   "tipo": "CP INF-PRI",
   "lat": 40.5120414,
   "lng": -3.6942563,
   "neae_types": [
    "TEA"
   ],
   "ccaa": "Madrid",
   "source": "CAM — centros preferentes (full HTML lists)",
   "address": "Avda. Santuario Valverde c/v Monasterio Oseira -28049 Madrid",
   "phone": "91 172 22 43"
  },
  {
   "codigo": "28031063",
   "name": "Breogán",
   "municipio": "FUENCARRAL-EL PARDO",
   "etapa": "",
   "tipo": "CP INF-PRI",
   "lat": 40.4755387,
   "lng": -3.7022893,
   "neae_types": [
    "TEA"
   ],
   "ccaa": "Madrid",
   "source": "CAM — centros preferentes (full HTML lists)",
   "address": "C/ Ginzo de Limia, 2 - 28029 Madrid",
   "phone": "91 730 40 40"
  },
  {
   "codigo": "28030198",
   "name": "Cardenal Herrera Oria",
   "municipio": "FUENCARRAL-EL PARDO",
   "etapa": "",
   "tipo": "CP INF-PRI",
   "lat": 40.4827469,
   "lng": -3.711299,
   "neae_types": [
    "TEA"
   ],
   "ccaa": "Madrid",
   "source": "CAM — centros preferentes (full HTML lists)",
   "address": "C/Fermín Caballero, 68 -28034 Madrid",
   "phone": "91 378 16 13",
   "website": "http://www.educa.madrid.org/ies.cardenalherrera.madrid"
  },
  {
   "codigo": "28005741",
   "name": "Luis de Góngora",
   "municipio": "FUENCARRAL-EL PARDO",
   "etapa": "",
   "tipo": "CP INF-PRI",
   "lat": 40.4747482,
   "lng": -3.7150497,
   "neae_types": [
    "TEA"
   ],
   "ccaa": "Madrid",
   "source": "CAM — centros preferentes (full HTML lists)",
   "address": "C/ Sarriá, 49 - 28029 Madrid",
   "phone": "91 386 08 16",
   "website": "http://www.educa.madrid.org/cp.gongora.madrid"
  },
  {
   "codigo": "28029111",
   "name": "Príncipe de Asturias",
   "municipio": "FUENCARRAL-EL PARDO",
   "etapa": "",
   "tipo": "CP INF-PRI",
   "lat": 40.518514,
   "lng": -3.7735517,
   "neae_types": [
    "TEA"
   ],
   "ccaa": "Madrid",
   "source": "CAM — centros preferentes (full HTML lists)",
   "address": "Carretera Colmenar Viejo Km. 15 - 28049 Madrid",
   "phone": "91 735 51 15"
  },
  {
   "codigo": "28021321",
   "name": "Rabindranath Tagore",
   "municipio": "FUENCARRAL-EL PARDO",
   "etapa": "",
   "tipo": "CP INF-PRI",
   "lat": 40.4829635,
   "lng": -3.695902,
   "neae_types": [
    "TEA"
   ],
   "ccaa": "Madrid",
   "source": "CAM — centros preferentes (full HTML lists)",
   "address": "C/Julio Palacios, 35 - 28029 Madrid",
   "phone": "91 733 23 73",
   "website": "http://www.educa.madrid.org/cp.tagore.madrid"
  },
  {
   "codigo": "28004941",
   "name": "Vasco Núñez de Balboa",
   "municipio": "FUENCARRAL-EL PARDO",
   "etapa": "",
   "tipo": "CP INF-PRI",
   "lat": 40.4995066,
   "lng": -3.6866012,
   "neae_types": [
    "TEA"
   ],
   "ccaa": "Madrid",
   "source": "CAM — centros preferentes (full HTML lists)",
   "address": "C/ De Nuestra Señora De Valverde 149 - 28034 Madrid",
   "phone": "91 734 32 67",
   "website": "http://www.educa.madrid.org/cp.nunezdebalboa.madrid"
  },
  {
   "codigo": "28063775",
   "name": "Gabriela Mistral",
   "municipio": "FUENCARRAL-EL PARDO",
   "etapa": "",
   "tipo": "CP INF-PRI-SEC",
   "lat": 40.5078272,
   "lng": -3.6669124,
   "neae_types": [
    "TEA"
   ],
   "ccaa": "Madrid",
   "source": "CAM — centros preferentes (full HTML lists)",
   "address": "C/ De Mirallos 3 - 28050 Madrid",
   "phone": "91 358 65 49"
  },
  {
   "codigo": "28069820",
   "name": "Leopoldo Calvo Sotelo",
   "municipio": "FUENCARRAL-EL PARDO",
   "etapa": "",
   "tipo": "CP INF-PRI",
   "lat": 40.5011625,
   "lng": -3.6748802,
   "neae_types": [
    "TEA"
   ],
   "ccaa": "Madrid",
   "source": "CAM — centros preferentes (full HTML lists)",
   "address": "C/ Puente la Reina, s/n - 28050 Madrid",
   "phone": "91 427 33 51",
   "website": "https://www.educa2.madrid.org/web/centro.cp.leopoldocalvosotelo.madrid"
  },
  {
   "codigo": "28036012",
   "name": "Conde de Elda",
   "municipio": "FUENCARRAL-EL PARDO",
   "etapa": "",
   "tipo": "CPR INF",
   "lat": 40.4745402,
   "lng": -3.7124138,
   "neae_types": [
    "TEA"
   ],
   "ccaa": "Madrid",
   "source": "CAM — centros preferentes (full HTML lists)",
   "address": "C/ Ponferrada, 14 - 28029 Madrid",
   "phone": "91 739 23 00"
  },
  {
   "codigo": "28009422",
   "name": "San Rafael Arcángel",
   "municipio": "FUENCARRAL-EL PARDO",
   "etapa": "",
   "tipo": "CPR INF-PRI",
   "lat": 40.4759507,
   "lng": -3.7310095,
   "neae_types": [
    "TEA"
   ],
   "ccaa": "Madrid",
   "source": "CAM — centros preferentes (full HTML lists)",
   "address": "C/ Otero y Delage, 105 - 28035 Madrid",
   "phone": "91 316 17 23",
   "website": "http://www.colegiosanrafaelsantaluisa.es"
  },
  {
   "codigo": "28010060",
   "name": "Virgen del Pilar",
   "municipio": "FUENCARRAL-EL PARDO",
   "etapa": "",
   "tipo": "CPR INF-PRI",
   "lat": 40.4762162,
   "lng": -3.7085236,
   "neae_types": [
    "TEA"
   ],
   "ccaa": "Madrid",
   "source": "CAM — centros preferentes (full HTML lists)",
   "address": "C/ Melchor Fernández Almagro, 70 - 28029 Madrid",
   "phone": "91 739 02 77"
  },
  {
   "codigo": "28037405",
   "name": "Fuentelarreyna",
   "municipio": "FUENCARRAL-EL PARDO",
   "etapa": "",
   "tipo": "CPR INF-PRI-SEC",
   "lat": 40.4844284,
   "lng": -3.7292747,
   "neae_types": [
    "Auditiva",
    "TEA"
   ],
   "ccaa": "Madrid",
   "source": "CAM — centros preferentes (full HTML lists)",
   "address": "C/ Ramón Gómez de la Serna, 24 -28035 Madrid",
   "phone": "91 373 23 28",
   "website": "https://www.colegiofuentelarreyna.org/"
  },
  {
   "codigo": "28008934",
   "name": "La Salle-Sagrado Corazón",
   "municipio": "FUENCARRAL-EL PARDO",
   "etapa": "",
   "tipo": "CPR INF-PRI-SEC",
   "lat": 40.483694,
   "lng": -3.7184817,
   "neae_types": [
    "TEA"
   ],
   "ccaa": "Madrid",
   "source": "CAM — centros preferentes (full HTML lists)",
   "address": "Avda. Del Cardenal Herrera Oria 242 - 28035 Madrid",
   "phone": "91 738 53 00",
   "website": "https://www.lasallesagradocorazon.es/"
  },
  {
   "codigo": "28069297",
   "name": "Santa María La Blanca",
   "municipio": "FUENCARRAL-EL PARDO",
   "etapa": "",
   "tipo": "CPR INF-PRI-SEC",
   "lat": 40.5105817,
   "lng": -3.6972895,
   "neae_types": [
    "Motora",
    "TEA"
   ],
   "ccaa": "Madrid",
   "source": "CAM — centros preferentes (full HTML lists)",
   "address": "C/ De Monasterio De Oseira, 17B  - 28049 Madrid",
   "phone": "91 750 86 92",
   "website": "https://www.colegiosantamarialablanca.es/"
  },
  {
   "codigo": "28014958",
   "name": "Virgen de Mirasierra",
   "municipio": "FUENCARRAL-EL PARDO",
   "etapa": "",
   "tipo": "CPR INF-PRI-SEC",
   "lat": 40.4841986,
   "lng": -3.713746,
   "neae_types": [
    "TEA"
   ],
   "ccaa": "Madrid",
   "source": "CAM — centros preferentes (full HTML lists)",
   "address": "C/ Masó, 103 - 28034 Madrid",
   "phone": "91 738 73 00"
  },
  {
   "codigo": "28030186",
   "name": "Dámaso Alonso",
   "municipio": "FUENCARRAL-EL PARDO",
   "etapa": "",
   "tipo": "IES",
   "lat": 40.4869529,
   "lng": -3.7008783,
   "neae_types": [
    "TEA"
   ],
   "ccaa": "Madrid",
   "source": "CAM — centros preferentes (full HTML lists)",
   "address": "C/ Alfredo Marquerie, 21 - 28034 Madrid",
   "phone": "91 738 86 75",
   "website": "http://www.educa.madrid.org/ies.damasoalonso.madrid"
  },
  {
   "codigo": "28020119",
   "name": "Gregorio Marañón",
   "municipio": "FUENCARRAL-EL PARDO",
   "etapa": "",
   "tipo": "IES",
   "lat": 40.4741886,
   "lng": -3.7082988,
   "neae_types": [
    "TEA"
   ],
   "ccaa": "Madrid",
   "source": "CAM — centros preferentes (full HTML lists)",
   "address": "Avda. De El Ferrol, 43 - 28029 Madrid",
   "phone": "91 731 04 21"
  },
  {
   "codigo": "28038355",
   "name": "I ES Mirasierra",
   "municipio": "FUENCARRAL-EL PARDO",
   "etapa": "",
   "tipo": "",
   "lat": 40.4918108,
   "lng": -3.7154297,
   "neae_types": [
    "TEA"
   ],
   "ccaa": "Madrid",
   "source": "CAM — centros preferentes (full HTML lists)",
   "address": "Calle De La Portera Del Cura 4 - 28034 Madrid",
   "phone": "91 734 65 32",
   "website": "http://www.educa.madrid.org/cp.mirasierra.madrid"
  },
  {
   "codigo": "28072995",
   "name": "Cortes de Cádiz",
   "municipio": "HORTALEZA",
   "etapa": "",
   "tipo": "CP INF-PRI",
   "lat": 40.4991073,
   "lng": -3.6554066,
   "neae_types": [
    "TEA"
   ],
   "ccaa": "Madrid",
   "source": "CAM — centros preferentes (full HTML lists)",
   "address": "Avda. de Niceto Alcalá Zamora c/v Isabel de Valois, s/n,- 28050 Madrid",
   "phone": "91 172 72 23"
  },
  {
   "codigo": "28021291",
   "name": "Filósofo Séneca",
   "municipio": "HORTALEZA",
   "etapa": "",
   "tipo": "CP INF-PRI",
   "lat": 40.4780139,
   "lng": -3.6505939,
   "neae_types": [
    "TEA"
   ],
   "ccaa": "Madrid",
   "source": "CAM — centros preferentes (full HTML lists)",
   "address": "C/ De Santa Adela, 21 - 28033 Madrid",
   "phone": "91 763 81 45",
   "website": "http://www.educa.madrid.org/cp.seneca.madrid"
  },
  {
   "codigo": "28021367",
   "name": "Luis Cernuda",
   "municipio": "HORTALEZA",
   "etapa": "",
   "tipo": "CP INF-PRI",
   "lat": 40.4612784,
   "lng": -3.6538247,
   "neae_types": [
    "TEA"
   ],
   "ccaa": "Madrid",
   "source": "CAM — centros preferentes (full HTML lists)",
   "address": "C/ Del Carril del Conde, 64 -28043 Madrid",
   "phone": "91 300 27 32"
  },
  {
   "codigo": "28006068",
   "name": "Pinar del Rey",
   "municipio": "HORTALEZA",
   "etapa": "",
   "tipo": "CP INF-PRI",
   "lat": 40.4711502,
   "lng": -3.6542199,
   "neae_types": [
    "TEA"
   ],
   "ccaa": "Madrid",
   "source": "CAM — centros preferentes (full HTML lists)",
   "address": "Avda. de San Luis, 23 - 28033 Madrid",
   "phone": "91 766 47 63",
   "website": "http://www.educa.madrid.org/cp.pinardelrey.madrid"
  },
  {
   "codigo": "28019567",
   "name": "San Miguel",
   "municipio": "HORTALEZA",
   "etapa": "",
   "tipo": "CP INF-PRI",
   "lat": 40.4744118,
   "lng": -3.6522738,
   "neae_types": [
    "TEA"
   ],
   "ccaa": "Madrid",
   "source": "CAM — centros preferentes (full HTML lists)",
   "address": "Avda. de la Virgen del Carmen, 32 -28033 Madrid",
   "phone": "91 763 92 81",
   "website": "http://www.educa.madrid.org/cp.sanmiguel.madrid"
  },
  {
   "codigo": "28063799",
   "name": "Adolfo Suárez",
   "municipio": "HORTALEZA",
   "etapa": "",
   "tipo": "CP INF-PRI-SEC",
   "lat": 40.4892658,
   "lng": -3.6525522,
   "neae_types": [
    "TEA"
   ],
   "ccaa": "Madrid",
   "source": "CAM — centros preferentes (full HTML lists)",
   "address": "C/ Infanta Catalina Micaela, 31 - 28050 Madrid",
   "phone": "91 750 20 58",
   "website": "https://www.educa2.madrid.org/web/centro.cp.adolfosuarez.madrid"
  },
  {
   "codigo": "28077865",
   "name": "Alfredo Di Stefano",
   "municipio": "HORTALEZA",
   "etapa": "",
   "tipo": "CP INF-PRI-SEC",
   "lat": 40.4968968,
   "lng": -3.6134359,
   "neae_types": [
    "TEA"
   ],
   "ccaa": "Madrid",
   "source": "CAM — centros preferentes (full HTML lists)",
   "address": "C/ De Félix Candela, 4 - 28055 Madrid",
   "phone": "660 906 527"
  },
  {
   "codigo": "28028854",
   "name": "Dionisio Ridruejo",
   "municipio": "HORTALEZA",
   "etapa": "",
   "tipo": "CP INF-PRI",
   "lat": 40.4731242,
   "lng": -3.6345464,
   "neae_types": [
    "TEA"
   ],
   "ccaa": "Madrid",
   "source": "CAM — centros preferentes (full HTML lists)",
   "address": "C/ De Zipaquira, 14 - 28033 Madrid",
   "phone": "91 763 91 88",
   "website": "http://www.educa.madrid.org/cp.dionisioridruej.madrid"
  },
  {
   "codigo": "28026067",
   "name": "Ramón Pérez de Ayala",
   "municipio": "HORTALEZA",
   "etapa": "",
   "tipo": "CP INF-PRI-SEC",
   "lat": 40.465891,
   "lng": -3.6329106,
   "neae_types": [
    "TEA"
   ],
   "ccaa": "Madrid",
   "source": "CAM — centros preferentes (full HTML lists)",
   "address": "C/ Motilla Del Palancar, 19 - 28043 Madrid",
   "phone": "91 759 22 05",
   "website": "http://www.educa.madrid.org/cp.perezdeayala.madrid"
  },
  {
   "codigo": "28031075",
   "name": "CP INF- PRI-SEC Virgen del Cortijo",
   "municipio": "HORTALEZA",
   "etapa": "",
   "tipo": "",
   "lat": 40.4878764,
   "lng": -3.6641765,
   "neae_types": [
    "TEA"
   ],
   "ccaa": "Madrid",
   "source": "CAM — centros preferentes (full HTML lists)",
   "address": "Avda. de Manoteras, 41 - 28050 Madrid",
   "phone": "91 766 12 15"
  },
  {
   "codigo": "28072132",
   "name": "Colegio CEU San Pablo Sanchinarro",
   "municipio": "HORTALEZA",
   "etapa": "",
   "tipo": "CPR INF-PRI-SEC",
   "lat": 40.4955184,
   "lng": -3.6514826,
   "neae_types": [
    "Motora",
    "TEA"
   ],
   "ccaa": "Madrid",
   "source": "CAM — centros preferentes (full HTML lists)",
   "address": "Avda. de Niceto Alcalá Zamora, 43, 28050 Madrid",
   "phone": "91 392 34 40"
  },
  {
   "codigo": "28014417",
   "name": "Santa Francisca Javier Cabrini",
   "municipio": "HORTALEZA",
   "etapa": "",
   "tipo": "CPR INF-PRI-SEC",
   "lat": 40.4639949,
   "lng": -3.638675,
   "neae_types": [
    "TEA"
   ],
   "ccaa": "Madrid",
   "source": "CAM — centros preferentes (full HTML lists)",
   "address": "C/ De Santa Francisca Javier Cabrini, 2 – 28043 Madrid",
   "phone": "91 300 25 13",
   "website": "http://www.educa.madrid.org/cc.cabrini.madrid"
  },
  {
   "codigo": "28018393",
   "name": "Alcalde Móstoles",
   "municipio": "LATINA",
   "etapa": "",
   "tipo": "CP INF-PRI",
   "lat": 40.3804575,
   "lng": -3.7762829,
   "neae_types": [
    "TEA"
   ],
   "ccaa": "Madrid",
   "source": "CAM — centros preferentes (full HTML lists)",
   "address": "C/ De Aldeanueva De La Vera 9, 28044 - Madrid",
   "phone": "91 705 54 65",
   "website": "http://www.educa.madrid.org/cp.alcaldedemostoles.madrid"
  },
  {
   "codigo": "28018401",
   "name": "Amadeo Vives",
   "municipio": "LATINA",
   "etapa": "",
   "tipo": "CP INF-PRI",
   "lat": 40.3968693,
   "lng": -3.7559035,
   "neae_types": [
    "TEA"
   ],
   "ccaa": "Madrid",
   "source": "CAM — centros preferentes (full HTML lists)",
   "address": "C/ Yébenes, 6 - 28047 Madrid",
   "phone": "91 718 33 89",
   "website": "http://www.educa.madrid.org/cn.amadeovives.madrid"
  },
  {
   "codigo": "28005155",
   "name": "Bolivia",
   "municipio": "LATINA",
   "etapa": "",
   "tipo": "CP INF-PRI",
   "lat": 40.4075213,
   "lng": -3.7501124,
   "neae_types": [
    "TEA"
   ],
   "ccaa": "Madrid",
   "source": "CAM — centros preferentes (full HTML lists)",
   "address": "C/ De Villavaliente 29 - 28011 Madrid",
   "phone": "91 464 99 89",
   "website": "http://www.educa.madrid.org/cp.bolivia.madrid"
  },
  {
   "codigo": "28019439",
   "name": "Ciudad de Badajoz",
   "municipio": "LATINA",
   "etapa": "",
   "tipo": "CP INF-PRI",
   "lat": 40.4435394,
   "lng": -3.6500734,
   "neae_types": [
    "TEA"
   ],
   "ccaa": "Madrid",
   "source": "CAM — centros preferentes (full HTML lists)",
   "address": "C/ Fray José Cerdeiriña, 51 - 28024 Madrid",
   "phone": "91 706 56 11"
  },
  {
   "codigo": "28010539",
   "name": "Cuba",
   "municipio": "LATINA",
   "etapa": "",
   "tipo": "CP INF-PRI",
   "lat": 40.3949299,
   "lng": -3.7618019,
   "neae_types": [
    "TEA"
   ],
   "ccaa": "Madrid",
   "source": "CAM — centros preferentes (full HTML lists)",
   "address": "C/Tembleque, 58 - 28024 Madrid",
   "phone": "91 518 75 64",
   "website": "http://www.educa.madrid.org/cp.cuba.madrid"
  },
  {
   "codigo": "28010576",
   "name": "Ermita del Santo",
   "municipio": "LATINA",
   "etapa": "",
   "tipo": "CP INF-PRI",
   "lat": 40.4110123,
   "lng": -3.7238515,
   "neae_types": [
    "TEA"
   ],
   "ccaa": "Madrid",
   "source": "CAM — centros preferentes (full HTML lists)",
   "address": "Paseo de la Ermita del Santo, 18 - 28011 Madrid",
   "phone": "91 464 25 90",
   "website": "http://www.educa.madrid.org/cp.ermitadelsanto.madrid"
  },
  {
   "codigo": "28019397",
   "name": "Francisco Arranz",
   "municipio": "LATINA",
   "etapa": "",
   "tipo": "CP INF-PRI",
   "lat": 40.3746414,
   "lng": -3.7626279,
   "neae_types": [
    "TEA"
   ],
   "ccaa": "Madrid",
   "source": "CAM — centros preferentes (full HTML lists)",
   "address": "C/ Sondica, 2 -28044 Madrid",
   "phone": "91 706 68 82",
   "website": "http://www.educa.madrid.org/cp.franciscoarranz.madrid"
  },
  {
   "codigo": "28010680",
   "name": "Francisco de Goya",
   "municipio": "LATINA",
   "etapa": "",
   "tipo": "CP INF-PRI",
   "lat": 40.4111082,
   "lng": -3.7273723,
   "neae_types": [
    "TEA"
   ],
   "ccaa": "Madrid",
   "source": "CAM — centros preferentes (full HTML lists)",
   "address": "C/ De Antillón, 23 - 28011 Madrid",
   "phone": "91 463 74 72",
   "website": "http://www.educa.madrid.org/cp.goya.madrid"
  },
  {
   "codigo": "28005635",
   "name": "Joaquín Dicenta",
   "municipio": "LATINA",
   "etapa": "",
   "tipo": "CP INF-PRI",
   "lat": 40.405879,
   "lng": -3.7381585,
   "neae_types": [
    "TEA"
   ],
   "ccaa": "Madrid",
   "source": "CAM — centros preferentes (full HTML lists)",
   "address": "Paseo Olivos, 70 -28011 Madrid",
   "phone": "91 463 20 93",
   "website": "http://www.educa.madrid.org/cp.joaquindicenta.madrid"
  },
  {
   "codigo": "28005684",
   "name": "Jovellanos",
   "municipio": "LATINA",
   "etapa": "",
   "tipo": "CP INF-PRI",
   "lat": 40.3791317,
   "lng": -3.7831767,
   "neae_types": [
    "TEA"
   ],
   "ccaa": "Madrid",
   "source": "CAM — centros preferentes (full HTML lists)",
   "address": "C/ Monroy, 34 - 28044 Madrid",
   "phone": "91 705 50 18"
  },
  {
   "codigo": "28037375",
   "name": "La Dehesa del Príncipe",
   "municipio": "LATINA",
   "etapa": "",
   "tipo": "CP INF-PRI",
   "lat": 40.380244,
   "lng": -3.793623,
   "neae_types": [
    "TEA"
   ],
   "ccaa": "Madrid",
   "source": "CAM — centros preferentes (full HTML lists)",
   "address": "Paseo de los Lanceros, 4 - 28024 Madrid",
   "phone": "91 509 16 79 / 91 509 00 44",
   "website": "http://www.educa.madrid.org/cp.ladehesa.madrid"
  },
  {
   "codigo": "28031099",
   "name": "La Latina",
   "municipio": "LATINA",
   "etapa": "",
   "tipo": "CP INF-PRI",
   "lat": 40.3886546,
   "lng": -3.7625512,
   "neae_types": [
    "TEA"
   ],
   "ccaa": "Madrid",
   "source": "CAM — centros preferentes (full HTML lists)",
   "address": "C/ Maqueda, 130 - 28024 Madrid",
   "phone": "91 509 99 15",
   "website": "http://www.educa.madrid.org/cp.lalatina.madrid"
  },
  {
   "codigo": "28020740",
   "name": "Nuestra Señora del Lucero",
   "municipio": "LATINA",
   "etapa": "",
   "tipo": "CP INF-PRI",
   "lat": 40.4023213,
   "lng": -3.7401433,
   "neae_types": [
    "TEA"
   ],
   "ccaa": "Madrid",
   "source": "CAM — centros preferentes (full HTML lists)",
   "address": "C/ De Muñico, 1 - 28047 Madrid",
   "phone": "91 464 76 78",
   "website": "http://www.educa.madrid.org/cp.lucero.madrid"
  },
  {
   "codigo": "28006196",
   "name": "República de Uruguay",
   "municipio": "LATINA",
   "etapa": "",
   "tipo": "CP INF-PRI",
   "lat": 40.3934631,
   "lng": -3.7408673,
   "neae_types": [
    "TEA"
   ],
   "ccaa": "Madrid",
   "source": "CAM — centros preferentes (full HTML lists)",
   "address": "Avda. Ntra. Sra. De Valvanera, 120 – 28047 Madrid",
   "phone": "91 466 13 60",
   "website": "http://www.educa.madrid.org/cp.uruguay.madrid"
  },
  {
   "codigo": "28028507",
   "name": "Adela Abrines Castaños",
   "municipio": "LATINA",
   "etapa": "",
   "tipo": "CPR INF",
   "lat": 40.3796288,
   "lng": -3.7794618,
   "neae_types": [
    "TEA"
   ],
   "ccaa": "Madrid",
   "source": "CAM — centros preferentes (full HTML lists)",
   "address": "C/ Garrovillas, 4 - 28044 Madrid",
   "phone": "91 705 31 00"
  },
  {
   "codigo": "28017339",
   "name": "Nebrija-Rosales",
   "municipio": "LATINA",
   "etapa": "",
   "tipo": "CPR INF-PRI",
   "lat": 40.3910448,
   "lng": -3.7446369,
   "neae_types": [
    "TEA"
   ],
   "ccaa": "Madrid",
   "source": "CAM — centros preferentes (full HTML lists)",
   "address": "C/ De Carlos Domingo, 10-12 - 28047 Madrid",
   "phone": "91 465 03 15",
   "website": "http://www.educa.madrid.org/cc.nebrijarosales.madrid"
  },
  {
   "codigo": "28006809",
   "name": "Beata Filipina-Fund.Feliciana Viertola",
   "municipio": "LATINA",
   "etapa": "",
   "tipo": "CPR INF-PRI-SEC",
   "lat": 40.380257,
   "lng": -3.772664,
   "neae_types": [
    "TEA"
   ],
   "ccaa": "Madrid",
   "source": "CAM — centros preferentes (full HTML lists)",
   "address": "C/ José de Cadalso,  50- 28044 Madrid",
   "phone": "91 706 30 21",
   "website": "https://beatafilipina.org/"
  },
  {
   "codigo": "28011490",
   "name": "El Carmelo Teresiano",
   "municipio": "LATINA",
   "etapa": "",
   "tipo": "CPR INF-PRI-SEC",
   "lat": 40.3769063,
   "lng": -3.7789704,
   "neae_types": [
    "TEA"
   ],
   "ccaa": "Madrid",
   "source": "CAM — centros preferentes (full HTML lists)",
   "address": "C/ Nuñomoral. 1 - 28044 Madrid",
   "phone": "91 705 24 27",
   "website": "http://www.educa.madrid.org/cc.carmeloteresiano.madrid"
  },
  {
   "codigo": "28011970",
   "name": "Gamo Diana",
   "municipio": "LATINA",
   "etapa": "",
   "tipo": "CPR INF-PRI-SEC",
   "lat": 40.3924478,
   "lng": -3.7623853,
   "neae_types": [
    "TEA"
   ],
   "ccaa": "Madrid",
   "source": "CAM — centros preferentes (full HTML lists)",
   "address": "C/ Temleque, 104 - 28024 Madrid",
   "phone": "91 717 69 46",
   "website": "http://www.gamodiana.es"
  },
  {
   "codigo": "28020235",
   "name": "Lourdes",
   "municipio": "LATINA",
   "etapa": "",
   "tipo": "CPR INF-PRI-SEC",
   "lat": 40.402873,
   "lng": -3.75964,
   "neae_types": [
    "TEA"
   ],
   "ccaa": "Madrid",
   "source": "CAM — centros preferentes (full HTML lists)",
   "address": "C/ San Roberto, 8 - 28011 Madrid",
   "phone": "91 518 03 58"
  },
  {
   "codigo": "28013401",
   "name": "Nuestra Señora del Sagrado Corazón",
   "municipio": "LATINA",
   "etapa": "",
   "tipo": "CPR INF-PRI-SEC",
   "lat": 40.4097501,
   "lng": -3.7355303,
   "neae_types": [
    "TEA"
   ],
   "ccaa": "Madrid",
   "source": "CAM — centros preferentes (full HTML lists)",
   "address": "C/ Grandeza Española, 89 - 28011 Madrid",
   "phone": "91 463 94 00",
   "website": "https://sagradocorazonfranciscanas.es/"
  },
  {
   "codigo": "28040741",
   "name": "Iturralde",
   "municipio": "LATINA",
   "etapa": "",
   "tipo": "IES",
   "lat": 40.384284,
   "lng": -3.7472424,
   "neae_types": [
    "TEA"
   ],
   "ccaa": "Madrid",
   "source": "CAM — centros preferentes (full HTML lists)",
   "address": "C/ Nuestra Señora de la Luz, 53 - 28047 Madrid",
   "phone": "91 462 68 22",
   "website": "http://www.educa.madrid.org/ies.iturralde.madrid"
  },
  {
   "codigo": "28021446",
   "name": "Daniel Vázquez Díaz",
   "municipio": "MONCLOA",
   "etapa": "",
   "tipo": "CP INF-PRI",
   "lat": 40.4648871,
   "lng": -3.7131472,
   "neae_types": [
    "TEA"
   ],
   "ccaa": "Madrid",
   "source": "CAM — centros preferentes (full HTML lists)",
   "address": "C/ Armenteros, 46 - 28039 Madrid",
   "phone": "91 450 58 42",
   "website": "http://www.educa.madrid.org/cp.vazquezdiaz.madrid"
  },
  {
   "codigo": "28017844",
   "name": "Nuestra Señora del Pilar",
   "municipio": "MONCLOA",
   "etapa": "",
   "tipo": "CPR INF-PRI-SEC",
   "lat": 40.4631637,
   "lng": -3.7093115,
   "neae_types": [
    "TEA"
   ],
   "ccaa": "Madrid",
   "source": "CAM — centros preferentes (full HTML lists)",
   "address": "C/Sánchez Preciados, 62 -28039 Madrid",
   "phone": "91 450 20 12",
   "website": "http://www.trilemamadrid.org"
  },
  {
   "codigo": "28026006",
   "name": "Fontarrón",
   "municipio": "MORATALAZ",
   "etapa": "",
   "tipo": "CP INF-PRI",
   "lat": 40.3948027,
   "lng": -3.6333473,
   "neae_types": [
    "Motora",
    "TEA"
   ],
   "ccaa": "Madrid",
   "source": "CAM — centros preferentes (full HTML lists)",
   "address": "C/ del Arroyo Fontarrón, 24- 28030 Madrid",
   "phone": "91 772 03 78",
   "website": "https://www.educa2.madrid.org/web/centro.cp.fontarron.madrid"
  },
  {
   "codigo": "28005891",
   "name": "Menéndez Pidal",
   "municipio": "MORATALAZ",
   "etapa": "",
   "tipo": "CP INF-PRI",
   "lat": 40.4003029,
   "lng": -3.6410794,
   "neae_types": [
    "TEA"
   ],
   "ccaa": "Madrid",
   "source": "CAM — centros preferentes (full HTML lists)",
   "address": "C/ Encomienda de Palacios, 85 - 28030 Madrid",
   "phone": "91 773 67 81"
  },
  {
   "codigo": "28021434",
   "name": "Pio Baroja",
   "municipio": "MORATALAZ",
   "etapa": "",
   "tipo": "CP INF-PRI",
   "lat": 40.4037179,
   "lng": -3.637272,
   "neae_types": [
    "TEA"
   ],
   "ccaa": "Madrid",
   "source": "CAM — centros preferentes (full HTML lists)",
   "address": "C/ De Luis de Hoyos Sáinz, 84 - 28030 Madrid",
   "phone": "91 773 96 18"
  },
  {
   "codigo": "28010953",
   "name": "Real Armada",
   "municipio": "MORATALAZ",
   "etapa": "",
   "tipo": "CP INF-PRI",
   "lat": 40.4025582,
   "lng": -3.6483959,
   "neae_types": [
    "TEA"
   ],
   "ccaa": "Madrid",
   "source": "CAM — centros preferentes (full HTML lists)",
   "address": "C/ Del corregidor Juan Francisco de Luján, 114 - 28030 Madrid",
   "phone": "91 773 65 83"
  },
  {
   "codigo": "28030289",
   "name": "Nuestra Señora de Moratalaz",
   "municipio": "MORATALAZ",
   "etapa": "",
   "tipo": "CPR INF-PRI-SEC",
   "lat": 40.406688,
   "lng": -3.6556355,
   "neae_types": [
    "TEA"
   ],
   "ccaa": "Madrid",
   "source": "CAM — centros preferentes (full HTML lists)",
   "address": "Avda. Moratalaz, 91 - 28030 MADRID",
   "phone": "91 439 21 46"
  },
  {
   "codigo": "28046509",
   "name": "Sagrada Familia",
   "municipio": "MORATALAZ",
   "etapa": "",
   "tipo": "CPR INF-PRI-SEC",
   "lat": 40.4062389,
   "lng": -3.6358129,
   "neae_types": [
    "TEA"
   ],
   "ccaa": "Madrid",
   "source": "CAM — centros preferentes (full HTML lists)",
   "address": "C/ Oberón, 6 - 28030 Madrid",
   "phone": "91 301 52 81"
  },
  {
   "codigo": "28020624",
   "name": "Rey Pastor",
   "municipio": "MORATALAZ",
   "etapa": "",
   "tipo": "IES",
   "lat": 40.4101938,
   "lng": -3.6482066,
   "neae_types": [
    "TEA"
   ],
   "ccaa": "Madrid",
   "source": "CAM — centros preferentes (full HTML lists)",
   "address": "C/ Corregidor José de Pasamonte, 17 - 28030 Madrid",
   "phone": "91 439 26 61"
  },
  {
   "codigo": "28004989",
   "name": "Agustina Díez",
   "municipio": "PUENTE DE VALLECAS",
   "etapa": "",
   "tipo": "CP INF-PRI",
   "lat": 40.3883689,
   "lng": -3.6471036,
   "neae_types": [
    "TEA"
   ],
   "ccaa": "Madrid",
   "source": "CAM — centros preferentes (full HTML lists)",
   "address": "C/ Vesubio, 5 - 28038 Madrid",
   "phone": "91 777 00 73",
   "website": "http://www.educa.madrid.org/cp.agustinadiez.madrid"
  },
  {
   "codigo": "28005854",
   "name": "Amós Acero",
   "municipio": "PUENTE DE VALLECAS",
   "etapa": "",
   "tipo": "CP INF-PRI",
   "lat": 40.3896725,
   "lng": -3.6642582,
   "neae_types": [
    "TEA"
   ],
   "ccaa": "Madrid",
   "source": "CAM — centros preferentes (full HTML lists)",
   "address": "C/ Rodríguez Espinosa, 54 - 28053 Madrid",
   "phone": "91 478 51 61",
   "website": "http://www.educa.madrid.org/cp.amosacero.madrid"
  },
  {
   "codigo": "28033941",
   "name": "Aragón",
   "municipio": "PUENTE DE VALLECAS",
   "etapa": "",
   "tipo": "CP INF-PRI",
   "lat": 40.3926681,
   "lng": -3.637932,
   "neae_types": [
    "TEA"
   ],
   "ccaa": "Madrid",
   "source": "CAM — centros preferentes (full HTML lists)",
   "address": "Avda. Rafael Alberti, 2 - 28038 Madrid",
   "phone": "91 303 98 52",
   "website": "http://www.educa.madrid.org/cp.aragon.madrid"
  },
  {
   "codigo": "28035524",
   "name": "Asturias",
   "municipio": "PUENTE DE VALLECAS",
   "etapa": "",
   "tipo": "CP INF-PRI",
   "lat": 40.3826675,
   "lng": -3.642857,
   "neae_types": [
    "TEA"
   ],
   "ccaa": "Madrid",
   "source": "CAM — centros preferentes (full HTML lists)",
   "address": "C/ De los Asturianos, 2 -28018  Madrid",
   "phone": "91 777 06 35",
   "website": "http://www.educa.madrid.org/cp.asturias.madrid"
  },
  {
   "codigo": "28020661",
   "name": "Carlos Sainz de los Terreros",
   "municipio": "PUENTE DE VALLECAS",
   "etapa": "",
   "tipo": "CP INF-PRI",
   "lat": 40.384901,
   "lng": -3.638695,
   "neae_types": [
    "TEA"
   ],
   "ccaa": "Madrid",
   "source": "CAM — centros preferentes (full HTML lists)",
   "address": "C/ Cártama, 1-28018  Madrid",
   "phone": "91 778 38 85",
   "website": "http://www.educa.madrid.org/cp.carlossainz.madrid"
  },
  {
   "codigo": "28005933",
   "name": "Eduardo Rojo",
   "municipio": "PUENTE DE VALLECAS",
   "etapa": "",
   "tipo": "CP INF-PRI",
   "lat": 40.3873932,
   "lng": -3.6630484,
   "neae_types": [
    "TEA"
   ],
   "ccaa": "Madrid",
   "source": "CAM — centros preferentes (full HTML lists)",
   "address": "C/ Eduardo Rojo, 2 - 28018 Madrid",
   "phone": "91 477 45 60",
   "website": "http://www.educa.madrid.org/cp.eduardorojo.madrid"
  },
  {
   "codigo": "28005404",
   "name": "Fray Junípero Serra",
   "municipio": "PUENTE DE VALLECAS",
   "etapa": "",
   "tipo": "CP INF-PRI",
   "lat": 40.3948223,
   "lng": -3.6575327,
   "neae_types": [
    "TEA"
   ],
   "ccaa": "Madrid",
   "source": "CAM — centros preferentes (full HTML lists)",
   "address": "Camino De Valderribas, 120 -28038 Madrid",
   "phone": "91 430 48 82",
   "website": "http://www.educa.madrid.org/cp.frayjunipero.madrid"
  },
  {
   "codigo": "28010655",
   "name": "García Morente",
   "municipio": "PUENTE DE VALLECAS",
   "etapa": "",
   "tipo": "CP INF-PRI",
   "lat": 40.374071,
   "lng": -3.6659734,
   "neae_types": [
    "TEA"
   ],
   "ccaa": "Madrid",
   "source": "CAM — centros preferentes (full HTML lists)",
   "address": "Ronda Sur 229 - 28053 Madrid",
   "phone": "91 785 20 16",
   "website": "http://www.educa.madrid.org/cp.garciamorente.madrid"
  },
  {
   "codigo": "28026547",
   "name": "Giner de los Ríos",
   "municipio": "PUENTE DE VALLECAS",
   "etapa": "",
   "tipo": "CP INF-PRI",
   "lat": 40.3792833,
   "lng": -3.6680466,
   "neae_types": [
    "TEA"
   ],
   "ccaa": "Madrid",
   "source": "CAM — centros preferentes (full HTML lists)",
   "address": "C/ De Membezar, 25 -28053 Madrid",
   "phone": "91 785 80 21",
   "website": "http://www.educa.madrid.org/cp.ginerdelosrios.madrid"
  },
  {
   "codigo": "28005623",
   "name": "Javier de Miguel",
   "municipio": "PUENTE DE VALLECAS",
   "etapa": "",
   "tipo": "CP INF-PRI",
   "lat": 40.3855757,
   "lng": -3.658204,
   "neae_types": [
    "TEA"
   ],
   "ccaa": "Madrid",
   "source": "CAM — centros preferentes (full HTML lists)",
   "address": "C/ Del Puerto De Viñamala, 11 - 28018 Madrid",
   "phone": "91 303 51 02",
   "website": "http://www.educa.madrid.org/cp.javierdemiguel.madrid"
  },
  {
   "codigo": "28010862",
   "name": "Manuel Núñez de Arenas",
   "municipio": "PUENTE DE VALLECAS",
   "etapa": "",
   "tipo": "CP INF-PRI",
   "lat": 40.291219,
   "lng": -3.746945,
   "neae_types": [
    "TEA"
   ],
   "ccaa": "Madrid",
   "source": "CAM — centros preferentes (full HTML lists)",
   "address": "C/ De Martos, 120 -28053 Madrid",
   "phone": "91 785 59 72",
   "website": "http://www.educa.madrid.org/cp.nunezdearenas.getafe"
  },
  {
   "codigo": "28006391",
   "name": "Santo Domingo",
   "municipio": "PUENTE DE VALLECAS",
   "etapa": "",
   "tipo": "CP INF-PRI",
   "lat": 40.3919154,
   "lng": -3.6464242,
   "neae_types": [
    "TEA"
   ],
   "ccaa": "Madrid",
   "source": "CAM — centros preferentes (full HTML lists)",
   "address": "C/ De San Felíu De Guixols 7 - 28038 Madrid",
   "phone": "91 778 52 93",
   "website": "http://www.educa.madrid.org/cp.santodomingo.madrid"
  },
  {
   "codigo": "28034891",
   "name": "Javier García Pita",
   "municipio": "PUENTE DE VALLECAS",
   "etapa": "",
   "tipo": "CPR INF",
   "lat": 40.3945859,
   "lng": -3.6453499,
   "neae_types": [
    "TEA"
   ],
   "ccaa": "Madrid",
   "source": "CAM — centros preferentes (full HTML lists)",
   "address": "C/ Humanes, 14 - 28038 Madrid",
   "phone": "91 778 45 11"
  },
  {
   "codigo": "28019142",
   "name": "Centro Cultural Palomeras",
   "municipio": "PUENTE DE VALLECAS",
   "etapa": "",
   "tipo": "CPR INF-PRI-SEC",
   "lat": 40.3930566,
   "lng": -3.6396173,
   "neae_types": [
    "TEA"
   ],
   "ccaa": "Madrid",
   "source": "CAM — centros preferentes (full HTML lists)",
   "address": "C/ Luis Marín, s/n - 28038 Madrid",
   "phone": "91 786 38 65",
   "website": "http://www.educa.madrid.org/cc.centroculturalpalomeras.madrid"
  },
  {
   "codigo": "28011593",
   "name": "Ciudad de los Muchachos",
   "municipio": "PUENTE DE VALLECAS",
   "etapa": "",
   "tipo": "CPR INF-PRI-SEC",
   "lat": 40.4024393,
   "lng": -3.6620786,
   "neae_types": [
    "TEA"
   ],
   "ccaa": "Madrid",
   "source": "CAM — centros preferentes (full HTML lists)",
   "address": "C/ De Santa Marta, 15 - 28038 Madrid",
   "phone": "91 434 20 30"
  },
  {
   "codigo": "28006779",
   "name": "El Ave María",
   "municipio": "PUENTE DE VALLECAS",
   "etapa": "",
   "tipo": "CPR INF-PRI-SEC",
   "lat": 40.397657,
   "lng": -3.6639739,
   "neae_types": [
    "TEA"
   ],
   "ccaa": "Madrid",
   "source": "CAM — centros preferentes (full HTML lists)",
   "address": "C/ Del Doctor Salgado, 16 - 28038 Madrid",
   "phone": "91 430 65 27"
  },
  {
   "codigo": "28045566",
   "name": "Gredos San Diego Vallecas",
   "municipio": "PUENTE DE VALLECAS",
   "etapa": "",
   "tipo": "CPR INF-PRI-SEC",
   "lat": 40.3799572,
   "lng": -3.6628256,
   "neae_types": [
    "TEA"
   ],
   "ccaa": "Madrid",
   "source": "CAM — centros preferentes (full HTML lists)",
   "address": "Avda. Parque de Palomeras Bajas, 14 - 28018 Madrid",
   "phone": "91 785 34 12"
  },
  {
   "codigo": "28011623",
   "name": "Liceo Cónsul",
   "municipio": "PUENTE DE VALLECAS",
   "etapa": "",
   "tipo": "CPR INF-PRI-SEC",
   "lat": 40.381844,
   "lng": -3.67006,
   "neae_types": [
    "TEA"
   ],
   "ccaa": "Madrid",
   "source": "CAM — centros preferentes (full HTML lists)",
   "address": "C/ De Peironcely, 7 - 28053 Madrid",
   "phone": "91 785 87 14",
   "website": "http://www.educa.madrid.org/cc.liceoconsul.madrid"
  },
  {
   "codigo": "28013607",
   "name": "Raimundo Lulio",
   "municipio": "PUENTE DE VALLECAS",
   "etapa": "",
   "tipo": "CPR INF-PRI-SEC",
   "lat": 40.3870865,
   "lng": -3.6674353,
   "neae_types": [
    "TEA"
   ],
   "ccaa": "Madrid",
   "source": "CAM — centros preferentes (full HTML lists)",
   "address": "Avda. de San Diego, 63 - 28018 Madrid",
   "phone": "91 478 19 97",
   "website": "https://www.raimundolulio.org/"
  },
  {
   "codigo": "28009653",
   "name": "Santa María de los Pinos",
   "municipio": "PUENTE DE VALLECAS",
   "etapa": "",
   "tipo": "CPR INF-PRI-SEC",
   "lat": 40.3813935,
   "lng": -3.6446683,
   "neae_types": [
    "TEA"
   ],
   "ccaa": "Madrid",
   "source": "CAM — centros preferentes (full HTML lists)",
   "address": "C/ De Angelillo, 9 - 28018 Madrid",
   "phone": "91 778 34 90",
   "website": "https://colegiosantamariadelospinos.es/"
  },
  {
   "codigo": "28022335",
   "name": "Trabenco",
   "municipio": "PUENTE DE VALLECAS",
   "etapa": "",
   "tipo": "CPR INF-PRI-SEC",
   "lat": 40.37053,
   "lng": -3.6581145,
   "neae_types": [
    "TEA"
   ],
   "ccaa": "Madrid",
   "source": "CAM — centros preferentes (full HTML lists)",
   "address": "C/ Reguera de Tomateros, 103 - 28053 Madrid",
   "phone": "91 785 63 68",
   "website": "https://trabenco-pozo.es/"
  },
  {
   "codigo": "28058603",
   "name": "Numancia",
   "municipio": "PUENTE DE VALLECAS",
   "etapa": "",
   "tipo": "IES",
   "lat": 40.4018496,
   "lng": -3.6552252,
   "neae_types": [
    "Motora",
    "TEA"
   ],
   "ccaa": "Madrid",
   "source": "CAM — centros preferentes (full HTML lists)",
   "address": "C/ De las Marismas, 14 -28038 Madrid",
   "phone": "91 501 50 01"
  },
  {
   "codigo": "28031087",
   "name": "Ciudad de Roma",
   "municipio": "RETIRO",
   "etapa": "",
   "tipo": "CP INF-PRI",
   "lat": 40.4153959,
   "lng": -3.665216,
   "neae_types": [
    "TEA"
   ],
   "ccaa": "Madrid",
   "source": "CAM — centros preferentes (full HTML lists)",
   "address": "C/ De Juan Esplandiu, 2 - 28007 Madrid",
   "phone": "91 574 38 97",
   "website": "https://www.educa2.madrid.org/web/centro.cp.ciudadderoma.madrid"
  },
  {
   "codigo": "28004965",
   "name": "Escuelas Aguirre",
   "municipio": "RETIRO",
   "etapa": "",
   "tipo": "CP INF-PRI",
   "lat": 40.4145311,
   "lng": -3.6746551,
   "neae_types": [
    "TEA"
   ],
   "ccaa": "Madrid",
   "source": "CAM — centros preferentes (full HTML lists)",
   "address": "C/Pío Baroja, 4 - 28009 Madrid",
   "phone": "91 574 18 64",
   "website": "http://www.educa.madrid.org/cp.aguirre.madrid"
  },
  {
   "codigo": "28010746",
   "name": "José Calvo Sotelo",
   "municipio": "RETIRO",
   "etapa": "",
   "tipo": "CP INF-PRI",
   "lat": 40.401256,
   "lng": -3.6734526,
   "neae_types": [
    "TEA"
   ],
   "ccaa": "Madrid",
   "source": "CAM — centros preferentes (full HTML lists)",
   "address": "Avda De La Ciudad De Barcelona, 83 - 28007 Madrid",
   "phone": "91 433 71 25",
   "website": "https://site.educa.madrid.org/cp.calvosotelo.madrid/"
  },
  {
   "codigo": "28010886",
   "name": "Nuestra Señora de la Almudena",
   "municipio": "RETIRO",
   "etapa": "",
   "tipo": "CP INF-PRI",
   "lat": 40.419056,
   "lng": -3.6782875,
   "neae_types": [
    "TEA"
   ],
   "ccaa": "Madrid",
   "source": "CAM — centros preferentes (full HTML lists)",
   "address": "C/Lope De Rueda, 48 - 28009 Madrid",
   "phone": "91 573 58 99",
   "website": "http://www.educa.madrid.org/cp.almudena.madrid"
  },
  {
   "codigo": "28013292",
   "name": "Montserrat",
   "municipio": "RETIRO",
   "etapa": "",
   "tipo": "CPR INF-PRI-SEC",
   "lat": 40.415577,
   "lng": -3.664046,
   "neae_types": [
    "TEA"
   ],
   "ccaa": "Madrid",
   "source": "CAM — centros preferentes (full HTML lists)",
   "address": "C/ Juan Esplandiu, 2 bis - 28007 Madrid",
   "phone": "91 573 75 07"
  },
  {
   "codigo": "28013802",
   "name": "Sagrado Corazón de Jesús",
   "municipio": "RETIRO",
   "etapa": "",
   "tipo": "CPR INF-PRI-SEC",
   "lat": 40.4061096,
   "lng": -3.6803026,
   "neae_types": [
    "TEA"
   ],
   "ccaa": "Madrid",
   "source": "CAM — centros preferentes (full HTML lists)",
   "address": "C/ Valderribas, 2 - 28007 Madrid",
   "phone": "91 551 16 55",
   "website": "http://www.educa.madrid.org/cc.scorazondejesus-retiro.madrid"
  },
  {
   "codigo": "28014910",
   "name": "Virgen de Atocha",
   "municipio": "RETIRO",
   "etapa": "",
   "tipo": "CPR INF-PRI-SEC",
   "lat": 40.4059267,
   "lng": -3.6845104,
   "neae_types": [
    "TEA"
   ],
   "ccaa": "Madrid",
   "source": "CAM — centros preferentes (full HTML lists)",
   "address": "Avda. de la Ciudad de Barcelona, 1 - 28007 Madrid",
   "phone": "91 552 48 04 / 91 552 48 03",
   "website": "https://atocha.fesd.es/"
  },
  {
   "codigo": "28010412",
   "name": "Amador de los Ríos",
   "municipio": "SALAMANCA",
   "etapa": "",
   "tipo": "CP INF-PRI",
   "lat": 40.4259685,
   "lng": -3.666505,
   "neae_types": [
    "TEA"
   ],
   "ccaa": "Madrid",
   "source": "CAM — centros preferentes (full HTML lists)",
   "address": "Paseo del Marqués de Zafra, 16 -28028 Madrid",
   "phone": "91 725 26 10",
   "website": "http://www.educa.madrid.org/cp.amadordelosrios.madrid"
  },
  {
   "codigo": "28013701",
   "name": "Trilema Safa",
   "municipio": "SALAMANCA",
   "etapa": "",
   "tipo": "CPR INF-PRI",
   "lat": 40.4213964,
   "lng": -3.6645972,
   "neae_types": [
    "TEA"
   ],
   "ccaa": "Madrid",
   "source": "CAM — centros preferentes (full HTML lists)",
   "address": "C/ Mercedes Fórmica, 32 - 28028 Madrid",
   "phone": "91 573 31 54​",
   "website": "http://www.colegio-sagradafamilia.es"
  },
  {
   "codigo": "28013103",
   "name": "Calasancio Ntra. Sra. de Las Escuelas Pías",
   "municipio": "SALAMANCA",
   "etapa": "",
   "tipo": "CPR INF-PRI-SEC",
   "lat": 40.430594,
   "lng": -3.676044,
   "neae_types": [
    "TEA"
   ],
   "ccaa": "Madrid",
   "source": "CAM — centros preferentes (full HTML lists)",
   "address": "C/ Conde De Peñalver, 51 -28006 Madrid",
   "phone": "91 444 94 00",
   "website": "https://www.colegiocalasancio.es/"
  },
  {
   "codigo": "28013191",
   "name": "Real Colegio de Ntra. Sra. de Loreto",
   "municipio": "SALAMANCA",
   "etapa": "",
   "tipo": "CPR INF-PRI-SEC",
   "lat": 40.4216623,
   "lng": -3.6697083,
   "neae_types": [
    "TEA"
   ],
   "ccaa": "Madrid",
   "source": "CAM — centros preferentes (full HTML lists)",
   "address": "C/ O’Donnell, 61 - 28009 Madrid",
   "phone": "91 573 32 10",
   "website": "http://www.educa.madrid.org/cc.realcolegionsloreto.madrid"
  },
  {
   "codigo": "28013723",
   "name": "Sagrada Familia",
   "municipio": "SALAMANCA",
   "etapa": "",
   "tipo": "CPR INF-PRI-SEC",
   "lat": 40.4229862,
   "lng": -3.6647052,
   "neae_types": [
    "TEA"
   ],
   "ccaa": "Madrid",
   "source": "CAM — centros preferentes (full HTML lists)",
   "address": "C/ De Jorge Juan 165, 28028, Madrid",
   "phone": "91 355 90 55",
   "website": "http://www.safajj.corazonistas.org"
  },
  {
   "codigo": "28006378",
   "name": "Santa Ana y San Rafael",
   "municipio": "SALAMANCA",
   "etapa": "",
   "tipo": "CPR INF-PRI-SEC",
   "lat": 40.421383,
   "lng": -3.668066,
   "neae_types": [
    "TEA"
   ],
   "ccaa": "Madrid",
   "source": "CAM — centros preferentes (full HTML lists)",
   "address": "C/ Doctor Ezquerdo, 53 - 28028  Madrid",
   "phone": "91 573 80 15",
   "website": "https://www.sasr.es/"
  },
  {
   "codigo": "28066302",
   "name": "Álvaro de Bazán",
   "municipio": "SAN BLAS-CANILLEJAS",
   "etapa": "",
   "tipo": "CP INF-PRI",
   "lat": 40.4210607,
   "lng": -3.6075958,
   "neae_types": [
    "TEA"
   ],
   "ccaa": "Madrid",
   "source": "CAM — centros preferentes (full HTML lists)",
   "address": "C/ Zurich, 10 - 28022 Madrid",
   "phone": "91 775 71 14",
   "website": "http://www.educa.madrid.org/cp.alvarodebazan.madrid/"
  },
  {
   "codigo": "28010473",
   "name": "Carmen Cabezuelo",
   "municipio": "SAN BLAS-CANILLEJAS",
   "etapa": "",
   "tipo": "CP INF-PRI",
   "lat": 40.4301001,
   "lng": -3.6290941,
   "neae_types": [
    "TEA"
   ],
   "ccaa": "Madrid",
   "source": "CAM — centros preferentes (full HTML lists)",
   "address": "C/ Cangas de Onís, 7 - 28037 Madrid",
   "phone": "91 304 01 17",
   "website": "http://www.educa.madrid.org/cp.carmencabezuelo.madrid"
  },
  {
   "codigo": "28005246",
   "name": "Ciudad Pegaso",
   "municipio": "SAN BLAS-CANILLEJAS",
   "etapa": "",
   "tipo": "CP INF-PRI",
   "lat": 40.4472065,
   "lng": -3.5981296,
   "neae_types": [
    "TEA"
   ],
   "ccaa": "Madrid",
   "source": "CAM — centros preferentes (full HTML lists)",
   "address": "Avenida Séptima, 12 - 28022 Madrid",
   "phone": "91 741 20 17",
   "website": "http://www.educa.madrid.org/cp.ciudadpegaso.madrid"
  },
  {
   "codigo": "28063805",
   "name": "Julián Marías",
   "municipio": "SAN BLAS-CANILLEJAS",
   "etapa": "",
   "tipo": "CP INF-PRI",
   "lat": 40.4281027,
   "lng": -3.603034,
   "neae_types": [
    "TEA"
   ],
   "ccaa": "Madrid",
   "source": "CAM — centros preferentes (full HTML lists)",
   "address": "C/ Budapest, 11- 28022  Madrid",
   "phone": "91 760 93 23",
   "website": "http://www.educa.madrid.org/cp.julianmarias.madrid"
  },
  {
   "codigo": "28006411",
   "name": "La Alameda",
   "municipio": "SAN BLAS-CANILLEJAS",
   "etapa": "",
   "tipo": "CP INF-PRI",
   "lat": 40.4377406,
   "lng": -3.6075619,
   "neae_types": [
    "TEA"
   ],
   "ccaa": "Madrid",
   "source": "CAM — centros preferentes (full HTML lists)",
   "address": "C/ De las Musas, 9 -28022 Madrid",
   "phone": "91 741 14 53",
   "website": "http://www.educa.madrid.org/cp.laalameda.madrid"
  },
  {
   "codigo": "28021148",
   "name": "Marqués de Suanzes",
   "municipio": "SAN BLAS-CANILLEJAS",
   "etapa": "",
   "tipo": "CP INF-PRI",
   "lat": 40.4429236,
   "lng": -3.6250506,
   "neae_types": [
    "Motora",
    "TEA"
   ],
   "ccaa": "Madrid",
   "source": "CAM — centros preferentes (full HTML lists)",
   "address": "Avda. del Veinticinco de Septiembre, 1 -28027 Madrid",
   "phone": "91 741 20 72",
   "website": "http://www.educa.madrid.org/cp.marquesdesuanzes.madrid"
  },
  {
   "codigo": "28025956",
   "name": "Ramón Mª del Valle Inclán",
   "municipio": "SAN BLAS-CANILLEJAS",
   "etapa": "",
   "tipo": "CP INF-PRI",
   "lat": 40.4301693,
   "lng": -3.6178274,
   "neae_types": [
    "TEA"
   ],
   "ccaa": "Madrid",
   "source": "CAM — centros preferentes (full HTML lists)",
   "address": "C/ Alconera, 1 - 28037 Madrid",
   "phone": "91 313 07 39"
  },
  {
   "codigo": "28010977",
   "name": "República de Chile",
   "municipio": "SAN BLAS-CANILLEJAS",
   "etapa": "",
   "tipo": "CP INF-PRI",
   "lat": 40.4279365,
   "lng": -3.6245873,
   "neae_types": [
    "TEA"
   ],
   "ccaa": "Madrid",
   "source": "CAM — centros preferentes (full HTML lists)",
   "address": "C/ Del Castillo De Uclés, 28 - 28037 Madrid",
   "phone": "91 304 66 58",
   "website": "http://www.educa.madrid.org/cp.chile.madrid"
  },
  {
   "codigo": "28032225",
   "name": "Jesús María-Nuestra Señora Caridad del Cobre",
   "municipio": "SAN BLAS-CANILLEJAS",
   "etapa": "",
   "tipo": "CPR INF-PRI",
   "lat": 40.4364875,
   "lng": -3.6363286,
   "neae_types": [
    "TEA"
   ],
   "ccaa": "Madrid",
   "source": "CAM — centros preferentes (full HTML lists)",
   "address": "C/ De Los Hermanos García Noblejas, 17 - 28037 Madrid",
   "phone": "91 367 04 56"
  },
  {
   "codigo": "28008405",
   "name": "Nuestra Señora de las Nieves",
   "municipio": "SAN BLAS-CANILLEJAS",
   "etapa": "",
   "tipo": "CPR INF-PRI-SEC",
   "lat": 40.4459524,
   "lng": -3.6140021,
   "neae_types": [
    "TEA"
   ],
   "ccaa": "Madrid",
   "source": "CAM — centros preferentes (full HTML lists)",
   "address": "C/ Alcalá, 589 - 28022 Madrid",
   "phone": "91 741 00 09",
   "website": "https://colegionuestrasradelasnieves.es/"
  },
  {
   "codigo": "28020201",
   "name": "Barrio Simancas",
   "municipio": "SAN BLAS-CANILLEJAS",
   "etapa": "",
   "tipo": "IES",
   "lat": 40.4292349,
   "lng": -3.6250665,
   "neae_types": [
    "TEA"
   ],
   "ccaa": "Madrid",
   "source": "CAM — centros preferentes (full HTML lists)",
   "address": "C/ Zaratán, 6 - 28037 Madrid",
   "phone": "91 304 15 70",
   "website": "http://www.educa.madrid.org/ies.barriosimancas.madrid"
  },
  {
   "codigo": "28039840",
   "name": "Marqués de Suanzes",
   "municipio": "SAN BLAS-CANILLEJAS",
   "etapa": "",
   "tipo": "IES",
   "lat": 40.4437681,
   "lng": -3.6254528,
   "neae_types": [
    "TEA"
   ],
   "ccaa": "Madrid",
   "source": "CAM — centros preferentes (full HTML lists)",
   "address": "Avda. Veinticinco De Septiembre, 3 - 28027 Madrid",
   "phone": "91 741 46 53",
   "website": "http://www.educa.madrid.org/cp.marquesdesuanzes.madrid"
  },
  {
   "codigo": "28010552",
   "name": "Doctor Federico Rubio",
   "municipio": "TETUÁN",
   "etapa": "",
   "tipo": "CP INF-PRI",
   "lat": 40.4521227,
   "lng": -3.7110815,
   "neae_types": [
    "TEA"
   ],
   "ccaa": "Madrid",
   "source": "CAM — centros preferentes (full HTML lists)",
   "address": "Avda. Doctor Federico Rubio y Galí, 53 -28039 Madrid",
   "phone": "91 450 20 91",
   "website": "http://www.educa.madrid.org/cp.federicorubio.madrid"
  },
  {
   "codigo": "28025971",
   "name": "Ignacio Zuloaga",
   "municipio": "TETUÁN",
   "etapa": "",
   "tipo": "CP INF-PRI",
   "lat": 40.4564506,
   "lng": -3.7113186,
   "neae_types": [
    "TEA"
   ],
   "ccaa": "Madrid",
   "source": "CAM — centros preferentes (full HTML lists)",
   "address": "C/ Alejandro Rodríguez, 34 - 28039 Madrid",
   "phone": "91 450 96 20",
   "website": "http://www.educa.madrid.org/cp.zuloaga.madrid"
  },
  {
   "codigo": "28050343",
   "name": "Jaime Vera",
   "municipio": "TETUÁN",
   "etapa": "",
   "tipo": "CP INF-PRI",
   "lat": 40.452456,
   "lng": -3.7023309,
   "neae_types": [
    "TEA"
   ],
   "ccaa": "Madrid",
   "source": "CAM — centros preferentes (full HTML lists)",
   "address": "C/ Bravo Murillo 162 - 28020 Madrid",
   "phone": "91 572 30 19",
   "website": "http://www.educa.madrid.org/ies.jaimevera.madrid"
  },
  {
   "codigo": "28021461",
   "name": "José Ortega y Gasset",
   "municipio": "TETUÁN",
   "etapa": "",
   "tipo": "CP INF-PRI",
   "lat": 40.4617205,
   "lng": -3.6942112,
   "neae_types": [
    "TEA"
   ],
   "ccaa": "Madrid",
   "source": "CAM — centros preferentes (full HTML lists)",
   "address": "C/ Orense, 87 - 28020 Madrid",
   "phone": "91 572 09 97"
  },
  {
   "codigo": "28005714",
   "name": "Juan Ramón Jiménez",
   "municipio": "TETUÁN",
   "etapa": "",
   "tipo": "CP INF-PRI",
   "lat": 40.463413,
   "lng": -3.7031211,
   "neae_types": [
    "TEA"
   ],
   "ccaa": "Madrid",
   "source": "CAM — centros preferentes (full HTML lists)",
   "address": "C/ del Marqués De Viana, 58 - 28039 Madrid",
   "phone": "91 571 75 12",
   "website": "http://www.educa.madrid.org/cp.juanramonjimenez.madrid"
  },
  {
   "codigo": "28006071",
   "name": "Pío XII",
   "municipio": "TETUÁN",
   "etapa": "",
   "tipo": "CP INF-PRI",
   "lat": 40.466789,
   "lng": -3.6937994,
   "neae_types": [
    "TEA"
   ],
   "ccaa": "Madrid",
   "source": "CAM — centros preferentes (full HTML lists)",
   "address": "C/ Del Delfín, 2 - 28029 Madrid",
   "phone": "91 315 12 21",
   "website": "http://www.educa.madrid.org/cp.piodoce.madrid"
  },
  {
   "codigo": "28020429",
   "name": "María Auxiliadora",
   "municipio": "TETUÁN",
   "etapa": "",
   "tipo": "CPR INF-PRI-SEC",
   "lat": 40.4581752,
   "lng": -3.7057921,
   "neae_types": [
    "TEA"
   ],
   "ccaa": "Madrid",
   "source": "CAM — centros preferentes (full HTML lists)",
   "address": "C/ De Villaamil, 18 - 28039 Madrid",
   "phone": "91 311 07 50",
   "website": "http://www.colegiomariaauxiliadora.org"
  },
  {
   "codigo": "28009291",
   "name": "San Juan Bautista",
   "municipio": "TETUÁN",
   "etapa": "",
   "tipo": "CPR INF-PRI-SEC",
   "lat": 40.4551848,
   "lng": -3.7047033,
   "neae_types": [
    "TEA"
   ],
   "ccaa": "Madrid",
   "source": "CAM — centros preferentes (full HTML lists)",
   "address": "C/ Francos Rodríguez, 5 - 28039 Madrid",
   "phone": "91 450 00 00",
   "website": "http://www.salesianosestrecho.es"
  },
  {
   "codigo": "28028477",
   "name": "Jaime Vera",
   "municipio": "TETUÁN",
   "etapa": "",
   "tipo": "IES",
   "lat": 40.4572979,
   "lng": -3.6983493,
   "neae_types": [
    "TEA"
   ],
   "ccaa": "Madrid",
   "source": "CAM — centros preferentes (full HTML lists)",
   "address": "C/ Infanta Mercedes, 47 – 28020 Madrid",
   "phone": "91 570 02 50",
   "website": "http://www.educa.madrid.org/ies.jaimevera.madrid"
  },
  {
   "codigo": "28005817",
   "name": "Jorge Manrique",
   "municipio": "USERA",
   "etapa": "",
   "tipo": "CP INF-PRI",
   "lat": 40.3887634,
   "lng": -3.7102675,
   "neae_types": [
    "TEA"
   ],
   "ccaa": "Madrid",
   "source": "CAM — centros preferentes (full HTML lists)",
   "address": "Plaza Del Pintor Lucas, 17, - 28026 Madrid",
   "phone": "91 565 63 00",
   "website": "http://www.educa.madrid.org/cp.jorgemanrique.madrid"
  },
  {
   "codigo": "28005726",
   "name": "Juan Sebastián el Cano",
   "municipio": "USERA",
   "etapa": "",
   "tipo": "CP INF-PRI",
   "lat": 40.3892352,
   "lng": -3.7045428,
   "neae_types": [
    "TEA"
   ],
   "ccaa": "Madrid",
   "source": "CAM — centros preferentes (full HTML lists)",
   "address": "C/Mirasierra, 29 - 28026 Madrid",
   "phone": "91 476 51 39"
  },
  {
   "codigo": "28010813",
   "name": "Marcelo Usera",
   "municipio": "USERA",
   "etapa": "",
   "tipo": "CP INF-PRI",
   "lat": 40.3871935,
   "lng": -3.6995566,
   "neae_types": [
    "TEA"
   ],
   "ccaa": "Madrid",
   "source": "CAM — centros preferentes (full HTML lists)",
   "address": "C/ Perales de Tajuña, 1 - 28026 Madrid",
   "phone": "91 475 34 95",
   "website": "http://www.educa.madrid.org/cp.marcelousera.madrid"
  },
  {
   "codigo": "28025968",
   "name": "Nuestra Señora de la Fuencisla",
   "municipio": "USERA",
   "etapa": "",
   "tipo": "CP INF-PRI",
   "lat": 40.3801711,
   "lng": -3.6977565,
   "neae_types": [
    "TEA"
   ],
   "ccaa": "Madrid",
   "source": "CAM — centros preferentes (full HTML lists)",
   "address": "C/ Tomelloso, 39 - 28026 Madrid",
   "phone": "91 475 43 27",
   "website": "http://www.educa.madrid.org/cp.fuencisla.madrid"
  },
  {
   "codigo": "28006101",
   "name": "Puerto Rico",
   "municipio": "USERA",
   "etapa": "",
   "tipo": "CP INF-PRI",
   "lat": 40.3678486,
   "lng": -3.717196,
   "neae_types": [
    "TEA"
   ],
   "ccaa": "Madrid",
   "source": "CAM — centros preferentes (full HTML lists)",
   "address": "C/ Segura, 74 - 28041 Madrid",
   "phone": "91 341 27 26",
   "website": "http://www.educa.madrid.org/cp.puertorico.madrid"
  },
  {
   "codigo": "28006159",
   "name": "República del Brasil",
   "municipio": "USERA",
   "etapa": "",
   "tipo": "CP INF-PRI",
   "lat": 40.369794,
   "lng": -3.6895606,
   "neae_types": [
    "TEA"
   ],
   "ccaa": "Madrid",
   "source": "CAM — centros preferentes (full HTML lists)",
   "address": "Avenida De Los Fueros, 34 - 28041 Madrid",
   "phone": "91 792 34 78",
   "website": "http://www.educa.madrid.org/cp.brasil.madrid"
  },
  {
   "codigo": "28029123",
   "name": "Meseta de Orcasitas",
   "municipio": "USERA",
   "etapa": "",
   "tipo": "CP INF-PRI-SEC",
   "lat": 40.3720462,
   "lng": -3.7098712,
   "neae_types": [
    "TEA"
   ],
   "ccaa": "Madrid",
   "source": "CAM — centros preferentes (full HTML lists)",
   "address": "C/ Del Camino Viejo de Villaverde, 1 -28041 Madrid",
   "phone": "91 341 30 45",
   "website": "http://www.educa.madrid.org/cp.mesetadeorcasitas.madrid"
  },
  {
   "codigo": "28011520",
   "name": "Central",
   "municipio": "USERA",
   "etapa": "",
   "tipo": "CPR INF-PRI",
   "lat": 40.3858905,
   "lng": -3.7019427,
   "neae_types": [
    "TEA"
   ],
   "ccaa": "Madrid",
   "source": "CAM — centros preferentes (full HTML lists)",
   "address": "C/ Manuel Muñoz, 9 - 28026 Madrid",
   "phone": "91 475 96 29",
   "website": "https://www.colegiocentral.es/"
  },
  {
   "codigo": "28069261",
   "name": "Edith Stein",
   "municipio": "USERA",
   "etapa": "",
   "tipo": "CPR INF-PRI-SEC",
   "lat": 40.3664013,
   "lng": -3.7088604,
   "neae_types": [
    "Motora",
    "TEA"
   ],
   "ccaa": "Madrid",
   "source": "CAM — centros preferentes (full HTML lists)",
   "address": "C/ Simca, 20 - 28041 Madrid",
   "phone": "91 341 28 79"
  },
  {
   "codigo": "28021999",
   "name": "La Natividad",
   "municipio": "USERA",
   "etapa": "",
   "tipo": "CPR INF-PRI-SEC",
   "lat": 40.367782,
   "lng": -3.69029,
   "neae_types": [
    "TEA"
   ],
   "ccaa": "Madrid",
   "source": "CAM — centros preferentes (full HTML lists)",
   "address": "C/Torrox, 4 - 28041 Madrid",
   "phone": "91 792 45 02",
   "website": "http://www.educa.madrid.org/cc.lanatividad.madrid"
  },
  {
   "codigo": "28007954",
   "name": "María Reina",
   "municipio": "USERA",
   "etapa": "",
   "tipo": "CPR INF-PRI-SEC",
   "lat": 40.3647554,
   "lng": -3.7024452,
   "neae_types": [
    "TEA"
   ],
   "ccaa": "Madrid",
   "source": "CAM — centros preferentes (full HTML lists)",
   "address": "Avda. de Orcasur, 42 - 28041 Madrid",
   "phone": "91 317 02 37",
   "website": "http://www.educa.madrid.org/cc.mariareina-usera.madrid"
  },
  {
   "codigo": "28016712",
   "name": "Mater Puríssima",
   "municipio": "USERA",
   "etapa": "",
   "tipo": "CPR INF-PRI-SEC",
   "lat": 40.3843965,
   "lng": -3.7018375,
   "neae_types": [
    "TEA"
   ],
   "ccaa": "Madrid",
   "source": "CAM — centros preferentes (full HTML lists)",
   "address": "C/ Madre Cándida Mª de Jesús, 4 - 28026 Madrid",
   "phone": "91 475 80 54",
   "website": "https://www.jesuitinasmater.es/"
  },
  {
   "codigo": "28022499",
   "name": "Nuestra Señora de Fátima",
   "municipio": "USERA",
   "etapa": "",
   "tipo": "CPR INF-PRI-SEC",
   "lat": 40.384826,
   "lng": -3.7013675,
   "neae_types": [
    "TEA"
   ],
   "ccaa": "Madrid",
   "source": "CAM — centros preferentes (full HTML lists)",
   "address": "C/ Manuel Muñoz, 30 - 28026 Madrid",
   "phone": "91 475 78 80"
  },
  {
   "codigo": "28008387",
   "name": "Obra SO. Ntra. Sra. de Montserrat-San Simón y San Judas",
   "municipio": "USERA",
   "etapa": "",
   "tipo": "CPR INF-PRI-SEC",
   "lat": 40.3650627,
   "lng": -3.7037727,
   "neae_types": [
    "TEA"
   ],
   "ccaa": "Madrid",
   "source": "CAM — centros preferentes (full HTML lists)",
   "address": "C/ Trévelez, 3 - 28041 Madrid",
   "phone": "91 317 56 43",
   "website": "http://www.colegiomontserrat.eu"
  },
  {
   "codigo": "28013772",
   "name": "Sagrado Corazón",
   "municipio": "USERA",
   "etapa": "",
   "tipo": "CPR INF-PRI-SEC",
   "lat": 40.3904636,
   "lng": -3.7097757,
   "neae_types": [
    "TEA"
   ],
   "ccaa": "Madrid",
   "source": "CAM — centros preferentes (full HTML lists)",
   "address": "Paseo de Santa María de la Cabeza, 115 - 28026 Madrid",
   "phone": "91 476 51 12 / 91 475 46 52",
   "website": "http://www.educa.madrid.org/cc.sagradocorazon.madrid"
  },
  {
   "codigo": "28009446",
   "name": "San Viator",
   "municipio": "USERA",
   "etapa": "",
   "tipo": "CPR INF-PRI-SEC",
   "lat": 40.3845076,
   "lng": -3.7170306,
   "neae_types": [
    "TEA"
   ],
   "ccaa": "Madrid",
   "source": "CAM — centros preferentes (full HTML lists)",
   "address": "Plaza Fernández Ladreda, 2 - 28026 Madrid",
   "phone": "91 569 70 03",
   "website": "https://colegiosanviator.es/"
  },
  {
   "codigo": "28009586",
   "name": "Santa María",
   "municipio": "USERA",
   "etapa": "",
   "tipo": "CPR INF-PRI-SEC",
   "lat": 40.3727495,
   "lng": -3.7170691,
   "neae_types": [
    "TEA"
   ],
   "ccaa": "Madrid",
   "source": "CAM — centros preferentes (full HTML lists)",
   "address": "C/ Tolosa, 6 - 28041 Madrid",
   "phone": "91 341 51 93",
   "website": "https://www.santamariamadrid.es/"
  },
  {
   "codigo": "28035330",
   "name": "Juan de Villanueva",
   "municipio": "USERA",
   "etapa": "",
   "tipo": "IES",
   "lat": 40.3728504,
   "lng": -3.7107648,
   "neae_types": [
    "TEA"
   ],
   "ccaa": "Madrid",
   "source": "CAM — centros preferentes (full HTML lists)",
   "address": "C/ Del Camino Viejo De Villaverde, 28 - 28041 Madrid",
   "phone": "91 341 63 43"
  },
  {
   "codigo": "28074244",
   "name": "Pedro Salinas",
   "municipio": "USERA",
   "etapa": "",
   "tipo": "IES",
   "lat": 40.3887531,
   "lng": -3.7090062,
   "neae_types": [
    "TEA"
   ],
   "ccaa": "Madrid",
   "source": "CAM — centros preferentes (full HTML lists)",
   "address": "C/ Del General Marvá, 24/26 -28026 Madrid",
   "phone": "91 569 92 36"
  },
  {
   "codigo": "28037053",
   "name": "Pradolongo",
   "municipio": "USERA",
   "etapa": "",
   "tipo": "IES",
   "lat": 40.3787604,
   "lng": -3.7173883,
   "neae_types": [
    "TEA"
   ],
   "ccaa": "Madrid",
   "source": "CAM — centros preferentes (full HTML lists)",
   "address": "C/ Del Albardín, 6 - 28026 Madrid",
   "phone": "91 469 90 13",
   "website": "http://www.educa.madrid.org/cp.pradolongo.madrid"
  },
  {
   "codigo": "28005003",
   "name": "Alfonso X El Sabio",
   "municipio": "VICÁLVARO",
   "etapa": "",
   "tipo": "CP INF-PRI",
   "lat": 40.4029217,
   "lng": -3.6037961,
   "neae_types": [
    "TEA"
   ],
   "ccaa": "Madrid",
   "source": "CAM — centros preferentes (full HTML lists)",
   "address": "C/ La Fuente de San Pedro, 6 - 28032 Madrid",
   "phone": "91 371 96 61",
   "website": "http://www.educa.madrid.org/cp.alfonsodecimo.madrid"
  },
  {
   "codigo": "28050355",
   "name": "Los Almendros",
   "municipio": "VICÁLVARO",
   "etapa": "",
   "tipo": "CP INF-PRI",
   "lat": 40.3962262,
   "lng": -3.6250375,
   "neae_types": [
    "TEA"
   ],
   "ccaa": "Madrid",
   "source": "CAM — centros preferentes (full HTML lists)",
   "address": "C/ De Ladera De Los Almendros, 45 - 28032 Madrid",
   "phone": "91 751 09 82"
  },
  {
   "codigo": "28045098",
   "name": "Valdebernardo",
   "municipio": "VICÁLVARO",
   "etapa": "",
   "tipo": "CP INF-PRI",
   "lat": 40.4040308,
   "lng": -3.6184218,
   "neae_types": [
    "TEA"
   ],
   "ccaa": "Madrid",
   "source": "CAM — centros preferentes (full HTML lists)",
   "address": "C/ Del Tren de Arganda, 9 - 28032 Madrid",
   "phone": "91 371 35 23",
   "website": "https://www.educa2.madrid.org/web/centro.ies.valdebernardo.madrid/inicio"
  },
  {
   "codigo": "28043223",
   "name": "Colegio Diocesano Cristo de la Guía",
   "municipio": "VICÁLVARO",
   "etapa": "",
   "tipo": "CPR INF-PRI",
   "lat": 40.4103027,
   "lng": -3.6140408,
   "neae_types": [
    "TEA"
   ],
   "ccaa": "Madrid",
   "source": "CAM — centros preferentes (full HTML lists)",
   "address": "C/ De Ezcaray, 3 - 28032 Madrid",
   "phone": "91 776 85 93"
  },
  {
   "codigo": "28037041",
   "name": "Joaquín Rodrigo",
   "municipio": "VICÁLVARO",
   "etapa": "",
   "tipo": "IES",
   "lat": 40.4092577,
   "lng": -3.6143304,
   "neae_types": [
    "TEA"
   ],
   "ccaa": "Madrid",
   "source": "CAM — centros preferentes (full HTML lists)",
   "address": "C/ de Casalarreina, 28 – 28032 Madrid",
   "phone": "91 776 22 62",
   "website": "http://www.educa.madrid.org/ies.joaquinrodrigo.madrid"
  },
  {
   "codigo": "28063751",
   "name": "Agustín Rodríguez Sahagún",
   "municipio": "VILLA DE VALLECAS",
   "etapa": "",
   "tipo": "CP INF-PRI",
   "lat": 40.3642927,
   "lng": -3.6148645,
   "neae_types": [
    "TEA"
   ],
   "ccaa": "Madrid",
   "source": "CAM — centros preferentes (full HTML lists)",
   "address": "C/ De la Granja de San Ildefonso, 17-19- 28051 Madrid",
   "phone": "91 332 43 48"
  },
  {
   "codigo": "28035512",
   "name": "Blas de Otero",
   "municipio": "VILLA DE VALLECAS",
   "etapa": "",
   "tipo": "CP INF-PRI",
   "lat": 40.3809377,
   "lng": -3.6119315,
   "neae_types": [
    "TEA"
   ],
   "ccaa": "Madrid",
   "source": "CAM — centros preferentes (full HTML lists)",
   "address": "C/ de Puentelarra, 34 - 28031 Madrid",
   "phone": "91 331 15 50",
   "website": "https://www.educa2.madrid.org/web/cp.blasdeotero-madrid"
  },
  {
   "codigo": "28005350",
   "name": "Francisco Fatou",
   "municipio": "VILLA DE VALLECAS",
   "etapa": "",
   "tipo": "CP INF-PRI",
   "lat": 40.376165,
   "lng": -3.6183376,
   "neae_types": [
    "TEA"
   ],
   "ccaa": "Madrid",
   "source": "CAM — centros preferentes (full HTML lists)",
   "address": "Camino de la Suerte, 23 - 28031 Madrid",
   "phone": "91 332 10 50",
   "website": "http://www.educa.madrid.org/cp.franciscofatou.madrid"
  },
  {
   "codigo": "28026535",
   "name": "Juan Gris",
   "municipio": "VILLA DE VALLECAS",
   "etapa": "",
   "tipo": "CP INF-PRI",
   "lat": 40.3729453,
   "lng": -3.6172265,
   "neae_types": [
    "TEA"
   ],
   "ccaa": "Madrid",
   "source": "CAM — centros preferentes (full HTML lists)",
   "address": "C/ De Muela de San Juan, 31 - 28031 Madrid",
   "phone": "91 332 72 64"
  },
  {
   "codigo": "28079436",
   "name": "María de Villota",
   "municipio": "VILLA DE VALLECAS",
   "etapa": "",
   "tipo": "CP INF-PRI",
   "lat": 40.638161,
   "lng": -3.997499,
   "neae_types": [
    "TEA"
   ],
   "ccaa": "Madrid",
   "source": "CAM — centros preferentes (full HTML lists)",
   "address": "C/ Cañada del Santísimo Sacramento, 23 - 28031 Madrid",
   "phone": "91 305 04 29",
   "website": "http://www.villalba.maristasiberica.es/"
  },
  {
   "codigo": "28077877",
   "name": "Ángel Nieto",
   "municipio": "VILLA DE VALLECAS",
   "etapa": "",
   "tipo": "CP INF-PRI-SEC",
   "lat": 40.361197,
   "lng": -3.587026,
   "neae_types": [
    "TEA"
   ],
   "ccaa": "Madrid",
   "source": "CAM — centros preferentes (full HTML lists)",
   "address": "Avda. De Las Suertes Esquina C/ Arte Expresionista, s/n -28051 Madrid",
   "phone": "91 272 34 49",
   "website": "https://www.educa2.madrid.org/web/centro.cp.angelnieto.madrid/"
  },
  {
   "codigo": "28074256",
   "name": "José de Echegaray",
   "municipio": "VILLA DE VALLECAS",
   "etapa": "",
   "tipo": "CP INF-PRI-SEC",
   "lat": 40.3671799,
   "lng": -3.6128863,
   "neae_types": [
    "TEA"
   ],
   "ccaa": "Madrid",
   "source": "CAM — centros preferentes (full HTML lists)",
   "address": "C/ De Puentedey, 14 - 28051 Madrid",
   "phone": "91 199 67 81",
   "website": "https://www.educa2.madrid.org/web/centro.cp.josedeechegaray.madrid"
  },
  {
   "codigo": "28069169",
   "name": "Loyola de Palacio",
   "municipio": "VILLA DE VALLECAS",
   "etapa": "",
   "tipo": "CP INF-PRI-SEC",
   "lat": 40.3630453,
   "lng": -3.6029976,
   "neae_types": [
    "TEA"
   ],
   "ccaa": "Madrid",
   "source": "CAM — centros preferentes (full HTML lists)",
   "address": "C/ del Embalse De Navacerrada, 60 - 28051 Madrid",
   "phone": "91 385 13 30",
   "website": "http://www.educa.madrid.org/cp.loyoladepalacio.madrid"
  },
  {
   "codigo": "28073173",
   "name": "Colegio Stella Maris La Gavia",
   "municipio": "VILLA DE VALLECAS",
   "etapa": "",
   "tipo": "CPR INF-PRI-SEC",
   "lat": 40.3722581,
   "lng": -3.605695,
   "neae_types": [
    "Motora",
    "TEA"
   ],
   "ccaa": "Madrid",
   "source": "CAM — centros preferentes (full HTML lists)",
   "address": "C/ Peñaranda de Bracamonte C/V Entrepeñas, 9 - 28051 Madrid",
   "phone": "91 300 50 70",
   "website": "https://www.stellamariscolegio.com/"
  },
  {
   "codigo": "28008910",
   "name": "Sagrado Corazón",
   "municipio": "VILLA DE VALLECAS",
   "etapa": "",
   "tipo": "CPR INF-PRI-SEC",
   "lat": 40.3799962,
   "lng": -3.6271447,
   "neae_types": [
    "TEA"
   ],
   "ccaa": "Madrid",
   "source": "CAM — centros preferentes (full HTML lists)",
   "address": "C/ De San Jaime, 21- 28031 Madrid",
   "phone": "91 303 01 40",
   "website": "http://www.sagrado-corazon.net"
  },
  {
   "codigo": "28070846",
   "name": "Torrevilano",
   "municipio": "VILLA DE VALLECAS",
   "etapa": "",
   "tipo": "CPR INF-PRI-SEC",
   "lat": 40.3630453,
   "lng": -3.6029976,
   "neae_types": [
    "TEA"
   ],
   "ccaa": "Madrid",
   "source": "CAM — centros preferentes (full HTML lists)",
   "address": "C/del Embalse De Navacerrada, 9 - 28051 Madrid",
   "phone": "91 494 59 59"
  },
  {
   "codigo": "28021215",
   "name": "Antonio de Nebrija",
   "municipio": "VILLAVERDE",
   "etapa": "",
   "tipo": "CP INF-PRI",
   "lat": 40.3526057,
   "lng": -3.6865111,
   "neae_types": [
    "TEA"
   ],
   "ccaa": "Madrid",
   "source": "CAM — centros preferentes (full HTML lists)",
   "address": "C/ Don Juan José Martínez Seco, 77 - 28021 Madrid",
   "phone": "91 796 35 00"
  },
  {
   "codigo": "28071383",
   "name": "Ausiás March",
   "municipio": "VILLAVERDE",
   "etapa": "",
   "tipo": "CP INF-PRI",
   "lat": 40.3444018,
   "lng": -3.6741409,
   "neae_types": [
    "TEA"
   ],
   "ccaa": "Madrid",
   "source": "CAM — centros preferentes (full HTML lists)",
   "address": "C/ De La Estefanita, 9 - 28021, Madrid",
   "phone": "91 710 99 16",
   "website": "https://www.educa2.madrid.org/web/centro.cp.ausiasmarch.madrid#ad-image-0"
  },
  {
   "codigo": "28005091",
   "name": "Azorín",
   "municipio": "VILLAVERDE",
   "etapa": "",
   "tipo": "CP INF-PRI",
   "lat": 40.3429729,
   "lng": -3.6867279,
   "neae_types": [
    "TEA"
   ],
   "ccaa": "Madrid",
   "source": "CAM — centros preferentes (full HTML lists)",
   "address": "C/ De Godella, 57 - 28021, Madrid",
   "phone": "91 797 57 33",
   "website": "http://www.educa.madrid.org/cp.azorin.madrid"
  },
  {
   "codigo": "28005106",
   "name": "Barcelona",
   "municipio": "VILLAVERDE",
   "etapa": "",
   "tipo": "CP INF-PRI",
   "lat": 40.3584281,
   "lng": -3.6966834,
   "neae_types": [
    "TEA"
   ],
   "ccaa": "Madrid",
   "source": "CAM — centros preferentes (full HTML lists)",
   "address": "Avda. De La Verbena De La Paloma, 14 - 28041 Madrid",
   "phone": "91 360 30 78",
   "website": "http://www.educa.madrid.org/cp.barcelona.madrid"
  },
  {
   "codigo": "28011684",
   "name": "Ciudad de Córdoba",
   "municipio": "VILLAVERDE",
   "etapa": "",
   "tipo": "CP INF-PRI",
   "lat": 40.362826,
   "lng": -3.6968952,
   "neae_types": [
    "TEA"
   ],
   "ccaa": "Madrid",
   "source": "CAM — centros preferentes (full HTML lists)",
   "address": "C/ Lillo, 1 - 28041 Madrid",
   "phone": "91 317 24 17",
   "website": "http://www.educa.madrid.org/cp.ciudaddecordoba.madrid"
  },
  {
   "codigo": "28005234",
   "name": "Ciudad de los Ángeles",
   "municipio": "VILLAVERDE",
   "etapa": "",
   "tipo": "CP INF-PRI",
   "lat": 40.3555364,
   "lng": -3.6964469,
   "neae_types": [
    "TEA"
   ],
   "ccaa": "Madrid",
   "source": "CAM — centros preferentes (full HTML lists)",
   "address": "C/ Alegría de la Huerta, 6 - 28041 Madrid",
   "phone": "91 795 49 93",
   "website": "http://www.educa.madrid.org/cp.ciudaddelosangeles.madrid"
  },
  {
   "codigo": "28005271",
   "name": "Cristóbal Colón",
   "municipio": "VILLAVERDE",
   "etapa": "",
   "tipo": "CP INF-PRI",
   "lat": 40.3506532,
   "lng": -3.7058629,
   "neae_types": [
    "TEA"
   ],
   "ccaa": "Madrid",
   "source": "CAM — centros preferentes (full HTML lists)",
   "address": "Ctra. de Carabanchel a Villaverde, 109 - 28041 Madrid",
   "phone": "91 797 33 12"
  },
  {
   "codigo": "28044434",
   "name": "El Espinillo",
   "municipio": "VILLAVERDE",
   "etapa": "",
   "tipo": "CP INF-PRI",
   "lat": 40.3617493,
   "lng": -3.6908584,
   "neae_types": [
    "TEA"
   ],
   "ccaa": "Madrid",
   "source": "CAM — centros preferentes (full HTML lists)",
   "address": "C/ de La Unanimidad, 1 - 28041 Madrid",
   "phone": "91 723 74 34",
   "website": "http://www.educa.madrid.org/ies.elespinillo.madrid"
  },
  {
   "codigo": "28060221",
   "name": "El Greco",
   "municipio": "VILLAVERDE",
   "etapa": "",
   "tipo": "CP INF-PRI",
   "lat": 40.3456691,
   "lng": -3.6746036,
   "neae_types": [
    "TEA"
   ],
   "ccaa": "Madrid",
   "source": "CAM — centros preferentes (full HTML lists)",
   "address": "C/ de La Estefanita, 7- 28021 Madrid",
   "phone": "91 710 00 08",
   "website": "http://www.educa.madrid.org/cp.elgreco.madrid"
  },